python_scritps/data/CBERSContact.txt

Target: CBERS4A

Observer: AC
Start Time (UTC)            Stop Time (UTC)               Duration (s)         
01 Jan 2000 18:10:59.424    01 Jan 2000 18:21:02.092      602.66851588    
01 Jan 2000 19:50:41.701    01 Jan 2000 19:59:04.899      503.19810421    
02 Jan 2000 06:36:54.111    02 Jan 2000 06:47:47.941      653.83046617    
02 Jan 2000 08:18:16.017    02 Jan 2000 08:23:48.667      332.64954665    
02 Jan 2000 17:37:53.731    02 Jan 2000 17:44:06.480      372.74878883    
02 Jan 2000 19:14:16.533    02 Jan 2000 19:25:08.087      651.55437682    
03 Jan 2000 06:02:51.599    03 Jan 2000 06:11:28.643      517.04455930    
03 Jan 2000 07:41:08.490    03 Jan 2000 07:50:55.691      587.20076415    
03 Jan 2000 18:38:51.331    03 Jan 2000 18:50:15.188      683.85752620    
04 Jan 2000 07:05:20.099    04 Jan 2000 07:16:33.973      673.87400122    
04 Jan 2000 18:04:15.619    04 Jan 2000 18:14:38.947      623.32833172    
04 Jan 2000 19:44:31.563    04 Jan 2000 19:52:10.791      459.22848472    
05 Jan 2000 06:30:16.299    05 Jan 2000 06:41:20.910      664.61071473    
05 Jan 2000 08:12:26.873    05 Jan 2000 08:16:28.532      241.65895659    
05 Jan 2000 17:30:50.263    05 Jan 2000 17:38:01.197      430.93413664    
05 Jan 2000 19:07:51.787    05 Jan 2000 19:18:28.144      636.35730922    
06 Jan 2000 05:56:02.444    06 Jan 2000 06:05:13.485      551.04140863    
06 Jan 2000 07:34:48.100    06 Jan 2000 07:44:08.752      560.65188318    


Number of events : 18


Observer: AL
Start Time (UTC)            Stop Time (UTC)               Duration (s)         
01 Jan 2000 16:29:32.312    01 Jan 2000 16:40:47.977      675.66502795    
02 Jan 2000 04:56:03.724    02 Jan 2000 05:07:24.225      680.50107155    
02 Jan 2000 15:55:13.739    02 Jan 2000 16:04:56.848      583.10840616    
02 Jan 2000 17:34:30.046    02 Jan 2000 17:43:23.086      533.04011885    
03 Jan 2000 04:21:12.626    03 Jan 2000 04:31:57.072      644.44536665    
03 Jan 2000 06:02:07.783    03 Jan 2000 06:08:27.761      379.97806936    
03 Jan 2000 15:22:29.066    03 Jan 2000 15:27:41.457      312.39076559    
03 Jan 2000 16:58:15.125    03 Jan 2000 17:09:16.687      661.56197630    
04 Jan 2000 03:47:19.432    04 Jan 2000 03:55:28.410      488.97754258    
04 Jan 2000 05:25:15.083    04 Jan 2000 05:35:18.389      603.30602814    
04 Jan 2000 16:22:56.611    04 Jan 2000 16:34:17.868      681.25745795    
05 Jan 2000 04:49:32.402    05 Jan 2000 05:00:49.932      677.52973570    
05 Jan 2000 15:48:28.314    05 Jan 2000 15:58:35.144      606.83003871    
05 Jan 2000 17:28:16.901    05 Jan 2000 17:36:31.883      494.98184453    
06 Jan 2000 04:14:33.794    06 Jan 2000 04:25:31.112      657.31746006    
06 Jan 2000 05:56:09.471    06 Jan 2000 06:01:17.118      307.64701272    


Number of events : 16


Observer: AM
Start Time (UTC)            Stop Time (UTC)               Duration (s)         
01 Jan 2000 18:08:02.825    01 Jan 2000 18:19:16.098      673.27257337    
01 Jan 2000 19:51:39.031    01 Jan 2000 19:53:19.918      100.88695656    
02 Jan 2000 06:38:08.822    02 Jan 2000 06:49:23.443      674.62100324    
02 Jan 2000 17:33:48.739    02 Jan 2000 17:43:17.800      569.06078761    
02 Jan 2000 19:12:50.189    02 Jan 2000 19:21:55.078      544.88829720    
03 Jan 2000 06:03:05.633    03 Jan 2000 06:14:10.720      665.08690061    
03 Jan 2000 07:45:41.462    03 Jan 2000 07:49:03.332      201.87047201    
03 Jan 2000 17:01:27.263    03 Jan 2000 17:05:33.034      245.77044355    
03 Jan 2000 18:36:41.383    03 Jan 2000 18:47:47.748      666.36526950    
04 Jan 2000 05:28:55.502    04 Jan 2000 05:38:04.593      549.09074876    
04 Jan 2000 07:07:41.049    04 Jan 2000 07:16:57.763      556.71400975    
04 Jan 2000 18:01:26.559    04 Jan 2000 18:12:46.664      680.10545630    
05 Jan 2000 04:57:08.748    05 Jan 2000 04:59:37.405      148.65698072    
05 Jan 2000 06:31:39.762    05 Jan 2000 06:42:46.794      667.03163992    
05 Jan 2000 17:27:02.275    05 Jan 2000 17:36:57.830      595.55504769    
05 Jan 2000 19:06:35.427    05 Jan 2000 19:15:04.219      508.79260276    
06 Jan 2000 05:56:28.838    06 Jan 2000 06:07:42.111      673.27308099    


Number of events : 17


Observer: AP
Start Time (UTC)            Stop Time (UTC)               Duration (s)         
01 Jan 2000 16:32:32.818    01 Jan 2000 16:34:28.298      115.47987617    
01 Jan 2000 18:06:40.265    01 Jan 2000 18:17:53.912      673.64700775    
02 Jan 2000 05:00:36.695    02 Jan 2000 05:09:54.455      557.76002663    
02 Jan 2000 06:39:30.648    02 Jan 2000 06:48:38.863      548.21521224    
02 Jan 2000 17:31:31.418    02 Jan 2000 17:42:47.166      675.74823762    
03 Jan 2000 04:28:31.140    03 Jan 2000 04:31:49.965      198.82516377    
03 Jan 2000 06:03:25.236    03 Jan 2000 06:14:30.257      665.02032545    
03 Jan 2000 16:57:14.071    03 Jan 2000 17:06:50.204      576.13334719    
03 Jan 2000 18:36:22.773    03 Jan 2000 18:45:19.587      536.81359654    
04 Jan 2000 05:28:12.237    04 Jan 2000 05:39:27.609      675.37141659    
04 Jan 2000 16:24:43.265    04 Jan 2000 16:29:10.772      267.50761347    
04 Jan 2000 18:00:12.285    04 Jan 2000 18:11:16.283      663.99795245    
05 Jan 2000 04:53:49.747    05 Jan 2000 05:03:35.417      585.66947656    
05 Jan 2000 06:33:14.957    05 Jan 2000 06:41:48.386      513.42946342    
05 Jan 2000 17:24:55.558    05 Jan 2000 17:36:17.457      681.89966900    
06 Jan 2000 04:21:02.634    06 Jan 2000 04:26:11.556      308.92226544    
06 Jan 2000 05:56:58.015    06 Jan 2000 06:07:51.849      653.83376655    


Number of events : 17


Observer: BA
Start Time (UTC)            Stop Time (UTC)               Duration (s)         
01 Jan 2000 16:30:42.884    01 Jan 2000 16:41:44.889      662.00472404    
01 Jan 2000 18:12:46.153    01 Jan 2000 18:17:41.697      295.54350326    
02 Jan 2000 04:55:21.844    02 Jan 2000 05:06:37.776      675.93241014    
02 Jan 2000 15:56:39.786    02 Jan 2000 16:05:42.101      542.31502673    
02 Jan 2000 17:35:09.289    02 Jan 2000 17:44:51.306      582.01688498    
03 Jan 2000 04:20:50.486    03 Jan 2000 04:30:47.048      596.56219905    
03 Jan 2000 06:00:20.525    03 Jan 2000 06:08:52.716      512.19105043    
03 Jan 2000 15:24:51.193    03 Jan 2000 15:27:36.969      165.77613921    
03 Jan 2000 16:59:11.274    03 Jan 2000 17:10:26.588      675.31388352    
04 Jan 2000 03:47:39.932    04 Jan 2000 03:53:30.768      350.83573032    
04 Jan 2000 05:24:09.729    04 Jan 2000 05:34:58.899      649.16993303    
04 Jan 2000 16:24:05.067    04 Jan 2000 16:35:16.490      671.42346350    
04 Jan 2000 18:07:14.963    04 Jan 2000 18:10:09.617      174.65374740    
05 Jan 2000 04:48:47.508    05 Jan 2000 05:00:07.055      679.54679502    
05 Jan 2000 15:49:51.161    05 Jan 2000 15:59:22.786      571.62568707    
05 Jan 2000 17:28:51.657    05 Jan 2000 17:38:05.083      553.42603724    
06 Jan 2000 04:14:07.816    06 Jan 2000 04:24:25.642      617.82658406    
06 Jan 2000 05:54:05.879    06 Jan 2000 06:01:58.828      472.94849743    


Number of events : 18


Observer: CE
Start Time (UTC)            Stop Time (UTC)               Duration (s)         
01 Jan 2000 16:28:23.297    01 Jan 2000 16:39:04.913      641.61609022    
01 Jan 2000 18:09:17.428    01 Jan 2000 18:15:52.125      394.69727513    
02 Jan 2000 04:57:49.151    02 Jan 2000 05:09:10.736      681.58522567    
02 Jan 2000 15:54:42.376    02 Jan 2000 16:02:36.292      473.91537636    
02 Jan 2000 17:32:19.236    02 Jan 2000 17:42:34.507      615.27071663    
03 Jan 2000 04:23:08.811    03 Jan 2000 04:33:34.441      625.63029350    
03 Jan 2000 06:03:32.116    03 Jan 2000 06:10:45.099      432.98249891    
03 Jan 2000 16:56:36.613    03 Jan 2000 17:08:00.493      683.88014414    
04 Jan 2000 03:49:37.749    04 Jan 2000 03:56:49.367      431.61843941    
04 Jan 2000 05:26:51.734    04 Jan 2000 05:37:16.652      624.91880225    
04 Jan 2000 16:21:43.093    04 Jan 2000 16:32:39.100      656.00697412    
04 Jan 2000 18:03:20.521    04 Jan 2000 18:08:43.242      322.72053317    
05 Jan 2000 04:51:16.438    05 Jan 2000 05:02:37.943      681.50551943    
05 Jan 2000 15:47:48.227    05 Jan 2000 15:56:23.407      515.18035540    
05 Jan 2000 17:25:58.057    05 Jan 2000 17:35:50.302      592.24546936    
06 Jan 2000 04:16:27.755    06 Jan 2000 04:27:10.157      642.40251475    
06 Jan 2000 05:57:27.865    06 Jan 2000 06:03:41.933      374.06826656    


Number of events : 17


Observer: ES
Start Time (UTC)            Stop Time (UTC)               Duration (s)         
01 Jan 2000 16:32:48.415    01 Jan 2000 16:43:49.907      661.49227931    
01 Jan 2000 18:14:34.887    01 Jan 2000 18:20:18.559      343.67234381    
02 Jan 2000 04:53:37.701    02 Jan 2000 05:04:32.989      655.28794922    
02 Jan 2000 06:34:29.383    02 Jan 2000 06:40:57.265      387.88200142    
02 Jan 2000 15:58:42.086    02 Jan 2000 16:07:53.293      551.20682276    
02 Jan 2000 17:37:12.538    02 Jan 2000 17:47:04.290      591.75248269    
03 Jan 2000 04:19:23.957    03 Jan 2000 04:28:15.990      532.03337548    
03 Jan 2000 05:57:48.544    03 Jan 2000 06:07:44.833      596.28846600    
03 Jan 2000 15:26:19.182    03 Jan 2000 15:30:28.440      249.25754021    
03 Jan 2000 17:01:16.714    03 Jan 2000 17:12:32.532      675.81759703    
04 Jan 2000 03:47:52.208    04 Jan 2000 03:49:08.265      76.056810922    
04 Jan 2000 05:22:06.334    04 Jan 2000 05:33:19.604      673.26962283    
04 Jan 2000 16:26:10.737    04 Jan 2000 16:37:21.194      670.45695012    
04 Jan 2000 18:08:48.238    04 Jan 2000 18:13:04.026      255.78777285    
05 Jan 2000 04:47:00.856    05 Jan 2000 04:58:05.907      665.05075491    
05 Jan 2000 06:28:25.624    05 Jan 2000 06:33:50.107      324.48297237    
05 Jan 2000 15:51:54.465    05 Jan 2000 16:01:32.257      577.79113183    
05 Jan 2000 17:30:54.109    05 Jan 2000 17:40:20.100      565.99090698    
06 Jan 2000 04:12:37.566    06 Jan 2000 04:22:00.011      562.44487254    
06 Jan 2000 05:51:25.959    06 Jan 2000 06:00:59.182      573.22337095    


Number of events : 20


Observer: GO
Start Time (UTC)            Stop Time (UTC)               Duration (s)         
01 Jan 2000 16:33:50.666    01 Jan 2000 16:42:08.685      498.01953047    
01 Jan 2000 18:11:36.711    01 Jan 2000 18:21:54.921      618.21044872    
02 Jan 2000 04:56:08.964    02 Jan 2000 05:04:50.603      521.63855658    
02 Jan 2000 06:34:27.494    02 Jan 2000 06:44:22.344      594.85075503    
02 Jan 2000 17:35:53.055    02 Jan 2000 17:47:15.233      682.17801974    
03 Jan 2000 05:58:43.749    03 Jan 2000 06:09:57.758      674.00945141    
03 Jan 2000 17:00:58.423    03 Jan 2000 17:11:55.403      656.98000118    
03 Jan 2000 18:42:34.359    03 Jan 2000 18:48:25.403      351.04467639    
04 Jan 2000 05:23:39.651    04 Jan 2000 05:34:43.438      663.78751335    
04 Jan 2000 07:05:16.187    04 Jan 2000 07:10:18.887      302.69941961    
04 Jan 2000 16:26:58.722    04 Jan 2000 16:35:51.735      533.01333835    
04 Jan 2000 18:05:15.690    04 Jan 2000 18:15:12.444      596.75416328    
05 Jan 2000 04:49:21.172    05 Jan 2000 04:58:35.374      554.20234061    
05 Jan 2000 06:28:05.555    05 Jan 2000 06:37:36.346      570.79042423    
05 Jan 2000 15:55:18.515    05 Jan 2000 15:57:42.626      144.11125942    
05 Jan 2000 17:29:22.720    05 Jan 2000 17:40:40.753      678.03294598    
06 Jan 2000 04:17:00.873    06 Jan 2000 04:20:22.504      201.63109554    
06 Jan 2000 05:52:14.093    06 Jan 2000 06:03:21.410      667.31743945    


Number of events : 18


Observer: MA
Start Time (UTC)            Stop Time (UTC)               Duration (s)         
01 Jan 2000 16:29:14.169    01 Jan 2000 16:38:10.098      535.92954600    
01 Jan 2000 18:07:42.630    01 Jan 2000 18:17:19.323      576.69317523    
02 Jan 2000 04:58:43.486    02 Jan 2000 05:09:40.053      656.56737926    
02 Jan 2000 06:40:32.318    02 Jan 2000 06:45:22.703      290.38502817    
02 Jan 2000 17:31:45.214    02 Jan 2000 17:43:00.929      675.71536055    
03 Jan 2000 04:24:43.073    03 Jan 2000 04:33:24.956      521.88349748    
03 Jan 2000 06:03:03.937    03 Jan 2000 06:12:43.208      579.27021724    
03 Jan 2000 16:56:38.783    03 Jan 2000 17:07:51.770      672.98706364    
03 Jan 2000 18:40:06.790    03 Jan 2000 18:42:02.140      115.34998255    
04 Jan 2000 05:27:10.232    04 Jan 2000 05:38:23.659      673.42706232    
04 Jan 2000 16:22:25.104    04 Jan 2000 16:31:52.667      567.56373119    
04 Jan 2000 18:01:24.893    04 Jan 2000 18:10:31.384      546.49104449    
05 Jan 2000 04:52:05.529    05 Jan 2000 05:03:12.562      667.03338535    
05 Jan 2000 06:35:00.041    05 Jan 2000 06:37:47.367      167.32573601    
05 Jan 2000 15:50:06.336    05 Jan 2000 15:54:04.352      238.01612123    
05 Jan 2000 17:25:16.876    05 Jan 2000 17:36:23.808      666.93181805    
06 Jan 2000 04:17:53.464    06 Jan 2000 04:27:08.856      555.39154062    
06 Jan 2000 05:56:45.188    06 Jan 2000 06:05:55.570      550.38122091    


Number of events : 18


Observer: MG
Start Time (UTC)            Stop Time (UTC)               Duration (s)         
01 Jan 2000 16:33:16.015    01 Jan 2000 16:43:39.159      623.14415165    
01 Jan 2000 18:13:21.491    01 Jan 2000 18:21:33.230      491.73926662    
02 Jan 2000 04:54:13.692    02 Jan 2000 05:04:29.576      615.88345596    
02 Jan 2000 06:33:56.567    02 Jan 2000 06:42:19.945      503.37769047    
02 Jan 2000 15:59:43.894    02 Jan 2000 16:07:14.845      450.95178323    
02 Jan 2000 17:36:49.452    02 Jan 2000 17:47:33.116      643.66348407    
03 Jan 2000 04:20:34.525    03 Jan 2000 04:27:34.469      419.94321638    
03 Jan 2000 05:57:47.365    03 Jan 2000 06:08:29.113      641.74785563    
03 Jan 2000 17:01:18.135    03 Jan 2000 17:12:41.614      683.47898237    
04 Jan 2000 05:22:21.900    04 Jan 2000 05:33:41.701      679.80086067    
04 Jan 2000 16:26:34.218    04 Jan 2000 16:37:13.581      639.36258643    
04 Jan 2000 18:07:12.782    04 Jan 2000 18:14:40.016      447.23465518    
05 Jan 2000 04:47:33.355    05 Jan 2000 04:58:06.649      633.29348430    
05 Jan 2000 06:27:41.020    05 Jan 2000 06:35:25.869      464.84847536    
05 Jan 2000 15:52:48.439    05 Jan 2000 16:01:00.460      492.02110508    
05 Jan 2000 17:30:25.751    05 Jan 2000 17:40:53.433      627.68202875    
06 Jan 2000 04:13:39.211    06 Jan 2000 04:21:27.964      468.75288236    
06 Jan 2000 05:51:21.298    06 Jan 2000 06:01:47.981      626.68290547    


Number of events : 18


Observer: MS
Start Time (UTC)            Stop Time (UTC)               Duration (s)         
01 Jan 2000 16:36:34.314    01 Jan 2000 16:42:22.610      348.29595677    
01 Jan 2000 18:12:30.280    01 Jan 2000 18:23:36.966      666.68610707    
02 Jan 2000 04:57:21.777    02 Jan 2000 05:01:50.324      268.54663576    
02 Jan 2000 06:33:13.336    02 Jan 2000 06:44:18.635      665.29856933    
02 Jan 2000 17:37:14.748    02 Jan 2000 17:48:32.909      678.16127177    
03 Jan 2000 05:58:00.847    03 Jan 2000 06:09:14.066      673.21879644    
03 Jan 2000 07:40:16.131    03 Jan 2000 07:43:59.210      223.07903260    
03 Jan 2000 17:02:47.226    03 Jan 2000 17:12:52.581      605.35475817    
03 Jan 2000 18:42:22.956    03 Jan 2000 18:51:11.633      528.67696295    
04 Jan 2000 05:23:27.612    04 Jan 2000 05:33:19.872      592.25986716    
04 Jan 2000 07:02:43.077    04 Jan 2000 07:11:45.011      541.93458724    
04 Jan 2000 16:29:29.504    04 Jan 2000 16:36:16.584      407.07996577    
04 Jan 2000 18:06:03.519    04 Jan 2000 18:16:59.873      656.35469559    
05 Jan 2000 04:50:09.522    05 Jan 2000 04:56:01.397      351.87531587    
05 Jan 2000 06:26:44.827    05 Jan 2000 06:37:40.701      655.87370249    
05 Jan 2000 17:30:40.040    05 Jan 2000 17:42:01.972      681.93206673    
06 Jan 2000 05:51:26.388    06 Jan 2000 06:02:43.989      677.60011823    


Number of events : 17


Observer: MT
Start Time (UTC)            Stop Time (UTC)               Duration (s)         
01 Jan 2000 18:11:06.888    01 Jan 2000 18:22:26.581      679.69271148    
02 Jan 2000 04:59:25.075    02 Jan 2000 05:02:48.122      203.04706207    
02 Jan 2000 06:34:37.766    02 Jan 2000 06:45:44.370      666.60359739    
02 Jan 2000 17:36:06.866    02 Jan 2000 17:47:11.128      664.26254787    
02 Jan 2000 19:18:17.864    02 Jan 2000 19:23:06.360      288.49545949    
03 Jan 2000 05:59:26.693    03 Jan 2000 06:10:38.884      672.19024514    
03 Jan 2000 07:42:09.941    03 Jan 2000 07:45:01.896      171.95479647    
03 Jan 2000 17:02:00.265    03 Jan 2000 17:11:12.516      552.25097698    
03 Jan 2000 18:40:37.417    03 Jan 2000 18:50:16.030      578.61327709    
04 Jan 2000 05:24:59.169    04 Jan 2000 05:34:42.023      582.85404317    
04 Jan 2000 07:04:11.237    04 Jan 2000 07:13:09.267      538.02940103    
04 Jan 2000 16:29:47.369    04 Jan 2000 16:33:33.371      226.00155686    
04 Jan 2000 18:04:37.487    04 Jan 2000 18:15:51.255      673.76794982    
05 Jan 2000 04:52:00.084    05 Jan 2000 04:57:10.578      310.49352527    
05 Jan 2000 06:28:09.383    05 Jan 2000 06:39:06.453      657.07028497    
05 Jan 2000 17:29:29.422    05 Jan 2000 17:40:42.352      672.93061718    
05 Jan 2000 19:12:49.470    05 Jan 2000 19:15:32.254      162.78426811    
06 Jan 2000 05:52:51.738    06 Jan 2000 06:04:09.051      677.31300137    


Number of events : 18


Observer: PA
Start Time (UTC)            Stop Time (UTC)               Duration (s)         
01 Jan 2000 16:30:42.052    01 Jan 2000 16:36:48.646      366.59326970    
01 Jan 2000 18:07:07.854    01 Jan 2000 18:17:56.835      648.98117047    
02 Jan 2000 04:59:40.823    02 Jan 2000 05:09:42.664      601.84149141    
02 Jan 2000 06:39:27.081    02 Jan 2000 06:47:33.514      486.43328460    
02 Jan 2000 17:31:41.719    02 Jan 2000 17:43:07.198      685.47892909    
03 Jan 2000 04:26:34.833    03 Jan 2000 04:32:35.479      360.64603406    
03 Jan 2000 06:03:02.209    03 Jan 2000 06:13:46.535      644.32567087    
03 Jan 2000 16:57:04.108    03 Jan 2000 17:07:30.250      626.14158781    
03 Jan 2000 18:37:23.694    03 Jan 2000 18:44:49.294      445.60046381    
04 Jan 2000 05:27:35.973    04 Jan 2000 05:38:57.642      681.66899640    
04 Jan 2000 16:23:37.848    04 Jan 2000 16:30:45.866      428.01768413    
04 Jan 2000 18:00:43.164    04 Jan 2000 18:11:15.942      632.77750629    
05 Jan 2000 04:52:57.544    05 Jan 2000 05:03:20.303      622.75901997    
05 Jan 2000 06:33:17.145    05 Jan 2000 06:40:36.742      439.59710451    
05 Jan 2000 17:25:08.712    05 Jan 2000 17:36:34.671      685.95832890    
06 Jan 2000 04:19:30.459    06 Jan 2000 04:26:33.600      423.14159693    
06 Jan 2000 05:56:37.453    06 Jan 2000 06:07:05.417      627.96387034    


Number of events : 17


Observer: PB
Start Time (UTC)            Stop Time (UTC)               Duration (s)         
01 Jan 2000 16:28:47.104    01 Jan 2000 16:40:04.541      677.43767223    
02 Jan 2000 04:56:43.364    02 Jan 2000 05:08:00.961      677.59702059    
02 Jan 2000 15:54:26.513    02 Jan 2000 16:04:14.107      587.59376864    
02 Jan 2000 17:33:49.342    02 Jan 2000 17:42:32.757      523.41461628    
03 Jan 2000 04:21:44.781    03 Jan 2000 04:32:42.722      657.94040918    
03 Jan 2000 06:03:30.172    03 Jan 2000 06:08:21.795      291.62226435    
03 Jan 2000 15:21:38.576    03 Jan 2000 15:26:59.154      320.57845441    
03 Jan 2000 16:57:31.938    03 Jan 2000 17:08:30.876      658.93757895    
04 Jan 2000 03:47:40.160    04 Jan 2000 03:56:28.042      527.88141399    
04 Jan 2000 05:26:06.311    04 Jan 2000 05:35:43.083      576.77198346    
04 Jan 2000 16:22:11.703    04 Jan 2000 16:33:34.209      682.50632810    
05 Jan 2000 04:50:13.360    05 Jan 2000 05:01:25.208      671.84769959    
05 Jan 2000 15:47:41.465    05 Jan 2000 15:57:52.355      610.88973493    
05 Jan 2000 17:27:36.970    05 Jan 2000 17:35:40.266      483.29601976    
06 Jan 2000 04:15:07.265    06 Jan 2000 04:26:15.132      667.86719759    
06 Jan 2000 05:57:55.046    06 Jan 2000 06:00:48.120      173.07434004    


Number of events : 16


Observer: PE
Start Time (UTC)            Stop Time (UTC)               Duration (s)         
01 Jan 2000 16:29:01.825    01 Jan 2000 16:40:20.084      678.25889715    
02 Jan 2000 04:56:27.986    02 Jan 2000 05:07:46.111      678.12524739    
02 Jan 2000 15:54:39.676    02 Jan 2000 16:04:31.415      591.73951191    
02 Jan 2000 17:34:07.599    02 Jan 2000 17:42:45.923      518.32376460    
03 Jan 2000 04:21:30.401    03 Jan 2000 04:32:26.570      656.16922367    
03 Jan 2000 06:03:06.059    03 Jan 2000 06:08:14.804      308.74505859    
03 Jan 2000 15:21:46.539    03 Jan 2000 15:27:22.304      335.76535089    
03 Jan 2000 16:57:48.166    03 Jan 2000 17:08:45.245      657.07885682    
04 Jan 2000 03:47:26.969    04 Jan 2000 03:56:09.898      522.92881374    
04 Jan 2000 05:25:48.880    04 Jan 2000 05:35:30.068      581.18740629    
04 Jan 2000 16:22:26.634    04 Jan 2000 16:33:49.551      682.91693522    
05 Jan 2000 04:49:57.775    05 Jan 2000 05:01:10.572      672.79724465    
05 Jan 2000 15:47:54.961    05 Jan 2000 15:58:09.264      614.30290887    
05 Jan 2000 17:27:55.799    05 Jan 2000 17:35:53.054      477.25558563    
06 Jan 2000 04:14:52.730    06 Jan 2000 04:25:59.219      666.48874719    
06 Jan 2000 05:57:24.352    06 Jan 2000 06:00:47.558      203.20587703    


Number of events : 16


Observer: PI
Start Time (UTC)            Stop Time (UTC)               Duration (s)         
01 Jan 2000 16:29:33.505    01 Jan 2000 16:39:12.079      578.57385334    
01 Jan 2000 18:08:45.660    01 Jan 2000 18:17:39.752      534.09149679    
02 Jan 2000 04:57:51.570    02 Jan 2000 05:08:53.285      661.71495746    
02 Jan 2000 06:40:00.664    02 Jan 2000 06:44:10.329      249.66492240    
02 Jan 2000 15:56:57.674    02 Jan 2000 16:01:43.440      285.76614606    
02 Jan 2000 17:32:32.539    02 Jan 2000 17:43:35.260      662.72088705    
03 Jan 2000 04:23:44.169    03 Jan 2000 04:32:43.004      538.83555016    
03 Jan 2000 06:02:20.076    03 Jan 2000 06:11:46.757      566.68095239    
03 Jan 2000 16:57:15.011    03 Jan 2000 17:08:36.466      681.45509820    
04 Jan 2000 03:52:37.777    04 Jan 2000 03:53:32.851      55.074584344    
04 Jan 2000 05:26:22.936    04 Jan 2000 05:37:32.450      669.51366289    
04 Jan 2000 16:22:47.754    04 Jan 2000 16:32:51.198      603.44444584    
04 Jan 2000 18:02:32.092    04 Jan 2000 18:10:48.060      495.96811332    
05 Jan 2000 04:51:14.415    05 Jan 2000 05:02:25.170      670.75458103    
05 Jan 2000 06:34:56.046    05 Jan 2000 06:36:06.509      70.463089063    
05 Jan 2000 15:49:43.539    05 Jan 2000 15:55:49.507      365.96796568    
05 Jan 2000 17:26:06.274    05 Jan 2000 17:36:56.291      650.01645957    
06 Jan 2000 04:16:56.156    06 Jan 2000 04:26:25.811      569.65530541    
06 Jan 2000 05:56:02.077    06 Jan 2000 06:04:57.881      535.80333560    


Number of events : 19


Observer: PR
Start Time (UTC)            Stop Time (UTC)               Duration (s)         
01 Jan 2000 16:35:36.007    01 Jan 2000 16:45:02.609      566.60173304    
01 Jan 2000 18:14:15.161    01 Jan 2000 18:24:09.571      594.41023614    
02 Jan 2000 04:53:57.169    02 Jan 2000 05:02:03.081      485.91197004    
02 Jan 2000 06:31:49.816    02 Jan 2000 06:42:20.914      631.09772260    
02 Jan 2000 16:02:44.640    02 Jan 2000 16:08:08.189      323.54829786    
02 Jan 2000 17:38:19.317    02 Jan 2000 17:49:34.118      674.80177511    
03 Jan 2000 05:56:20.514    03 Jan 2000 06:07:39.255      678.74083731    
03 Jan 2000 17:03:11.348    03 Jan 2000 17:14:23.279      671.93125784    
03 Jan 2000 18:45:38.873    03 Jan 2000 18:50:29.117      290.24402675    
04 Jan 2000 05:21:23.141    04 Jan 2000 05:32:12.441      649.29987128    
04 Jan 2000 07:01:43.247    04 Jan 2000 07:09:12.831      449.58374159    
04 Jan 2000 16:28:49.918    04 Jan 2000 16:38:39.833      589.91496814    
04 Jan 2000 18:07:56.436    04 Jan 2000 18:17:26.552      570.11577585    
05 Jan 2000 04:47:08.501    05 Jan 2000 04:55:50.821      522.32004837    
05 Jan 2000 06:25:24.023    05 Jan 2000 06:35:38.957      614.93398855    
05 Jan 2000 15:55:38.283    05 Jan 2000 16:02:02.700      384.41706315    
05 Jan 2000 17:31:50.986    05 Jan 2000 17:42:58.697      667.71096981    
06 Jan 2000 04:16:00.504    06 Jan 2000 04:16:10.920      10.416306846    
06 Jan 2000 05:49:49.143    06 Jan 2000 06:01:05.263      676.12082411    


Number of events : 19


Observer: RJ
Start Time (UTC)            Stop Time (UTC)               Duration (s)         
01 Jan 2000 16:33:51.026    01 Jan 2000 16:44:33.089      642.06223012    
01 Jan 2000 18:14:30.125    01 Jan 2000 18:22:04.350      454.22509988    
02 Jan 2000 04:53:20.674    02 Jan 2000 05:03:39.507      618.83367664    
02 Jan 2000 06:33:01.400    02 Jan 2000 06:41:32.776      511.37638948    
02 Jan 2000 16:00:00.541    02 Jan 2000 16:08:25.482      504.94066385    
02 Jan 2000 17:37:44.701    02 Jan 2000 17:48:12.900      628.19870361    
03 Jan 2000 04:19:34.333    03 Jan 2000 04:26:48.396      434.06296133    
03 Jan 2000 05:56:56.265    03 Jan 2000 06:07:38.914      642.64847530    
03 Jan 2000 17:02:04.565    03 Jan 2000 17:13:26.843      682.27794188    
04 Jan 2000 05:21:31.362    04 Jan 2000 05:32:50.878      679.51595978    
04 Jan 2000 16:27:11.177    04 Jan 2000 16:38:05.891      654.71399651    
04 Jan 2000 18:08:25.501    04 Jan 2000 18:15:08.009      402.50804045    
05 Jan 2000 04:46:40.938    05 Jan 2000 04:57:16.350      635.41207508    
05 Jan 2000 06:26:44.442    05 Jan 2000 06:34:39.841      475.39900246    
05 Jan 2000 15:53:09.624    05 Jan 2000 16:02:06.810      537.18606548    
05 Jan 2000 17:31:22.687    05 Jan 2000 17:41:32.220      609.53269674    
06 Jan 2000 04:12:40.979    06 Jan 2000 04:20:40.590      479.61121243    
06 Jan 2000 05:50:29.833    06 Jan 2000 06:00:58.043      628.20968631    


Number of events : 18


Observer: RN
Start Time (UTC)            Stop Time (UTC)               Duration (s)         
01 Jan 2000 16:28:29.000    01 Jan 2000 16:39:43.376      674.37659166    
02 Jan 2000 04:57:05.185    02 Jan 2000 05:08:23.088      677.90241492    
02 Jan 2000 15:54:13.092    02 Jan 2000 16:03:48.157      575.06499431    
02 Jan 2000 17:33:21.114    02 Jan 2000 17:42:20.068      538.95343670    
03 Jan 2000 04:22:07.090    03 Jan 2000 04:33:04.600      657.51019249    
03 Jan 2000 06:03:53.859    03 Jan 2000 06:08:44.090      290.23140077    
03 Jan 2000 15:21:41.362    03 Jan 2000 15:26:16.418      275.05643971    
03 Jan 2000 16:57:09.424    03 Jan 2000 17:08:13.575      664.15142363    
04 Jan 2000 03:48:03.717    04 Jan 2000 03:56:49.696      525.97939315    
04 Jan 2000 05:26:28.382    04 Jan 2000 05:36:05.622      577.24001112    
04 Jan 2000 16:21:52.971    04 Jan 2000 16:33:13.639      680.66797463    
05 Jan 2000 04:50:35.161    05 Jan 2000 05:01:47.390      672.22906320    
05 Jan 2000 15:47:27.047    05 Jan 2000 15:57:27.453      600.40591626    
05 Jan 2000 17:27:07.140    05 Jan 2000 17:35:28.931      501.79078057    
06 Jan 2000 04:15:29.447    06 Jan 2000 04:26:37.044      667.59664578    
06 Jan 2000 05:58:19.984    06 Jan 2000 06:01:09.472      169.48815953    


Number of events : 16


Observer: RO
Start Time (UTC)            Stop Time (UTC)               Duration (s)         
01 Jan 2000 18:10:00.066    01 Jan 2000 18:20:51.223      651.15746657    
01 Jan 2000 19:51:22.842    01 Jan 2000 19:57:18.286      355.44388810    
02 Jan 2000 06:36:48.664    02 Jan 2000 06:48:07.179      678.51441968    
02 Jan 2000 17:36:09.239    02 Jan 2000 17:44:35.304      506.06505676    
02 Jan 2000 19:14:08.947    02 Jan 2000 19:24:10.615      601.66780308    
03 Jan 2000 06:02:15.129    03 Jan 2000 06:12:21.416      606.28651483    
03 Jan 2000 07:42:02.443    03 Jan 2000 07:50:08.117      485.67383451    
03 Jan 2000 18:38:19.691    03 Jan 2000 18:49:40.423      680.73160176    
04 Jan 2000 05:28:59.259    04 Jan 2000 05:35:15.722      376.46211799    
04 Jan 2000 07:05:41.341    04 Jan 2000 07:16:22.968      641.62658039    
04 Jan 2000 18:03:20.863    04 Jan 2000 18:14:24.185      663.32273452    
04 Jan 2000 19:45:33.885    04 Jan 2000 19:50:02.743      268.85874619    
05 Jan 2000 06:30:14.800    05 Jan 2000 06:41:35.735      680.93522417    
05 Jan 2000 17:29:17.681    05 Jan 2000 17:38:19.183      541.50230734    
05 Jan 2000 19:07:49.305    05 Jan 2000 19:17:25.624      576.31857425    
06 Jan 2000 05:55:32.807    06 Jan 2000 06:05:59.030      626.22263872    
06 Jan 2000 07:35:51.177    06 Jan 2000 07:43:11.305      440.12807849    


Number of events : 17


Observer: RR
Start Time (UTC)            Stop Time (UTC)               Duration (s)         
01 Jan 2000 18:06:35.648    01 Jan 2000 18:17:35.120      659.47225312    
01 Jan 2000 19:48:14.012    01 Jan 2000 19:53:27.842      313.82989195    
02 Jan 2000 06:39:48.360    02 Jan 2000 06:51:00.765      672.40504324    
02 Jan 2000 17:32:36.629    02 Jan 2000 17:41:18.548      521.91905886    
02 Jan 2000 19:10:52.810    02 Jan 2000 19:20:41.404      588.59423439    
03 Jan 2000 06:04:41.724    03 Jan 2000 06:15:51.738      670.01377302    
03 Jan 2000 07:48:19.160    03 Jan 2000 07:49:53.478      94.317932578    
03 Jan 2000 18:35:00.978    03 Jan 2000 18:46:20.113      679.13431926    
04 Jan 2000 05:30:27.984    04 Jan 2000 05:39:52.771      564.78663306    
04 Jan 2000 07:09:28.641    04 Jan 2000 07:18:30.904      542.26314296    
04 Jan 2000 17:59:57.496    04 Jan 2000 18:11:07.828      670.33114048    
04 Jan 2000 19:42:33.720    04 Jan 2000 19:46:00.470      206.74960404    
05 Jan 2000 04:58:09.860    05 Jan 2000 05:02:04.034      234.17467248    
05 Jan 2000 06:33:20.076    05 Jan 2000 06:44:23.619      663.54295404    
05 Jan 2000 17:25:46.726    05 Jan 2000 17:35:02.762      556.03596418    
05 Jan 2000 19:04:33.565    05 Jan 2000 19:13:54.230      560.66500264    
06 Jan 2000 05:58:05.427    06 Jan 2000 06:09:22.363      676.93593297    


Number of events : 17


Observer: RS
Start Time (UTC)            Stop Time (UTC)               Duration (s)         
01 Jan 2000 16:36:59.441    01 Jan 2000 16:46:22.982      563.54149422    
01 Jan 2000 18:15:27.352    01 Jan 2000 18:25:40.391      613.03848485    
02 Jan 2000 04:53:21.562    02 Jan 2000 05:00:03.888      402.32533267    
02 Jan 2000 06:30:30.035    02 Jan 2000 06:41:30.572      660.53610836    
02 Jan 2000 16:04:00.565    02 Jan 2000 16:09:39.082      338.51708926    
02 Jan 2000 17:39:38.549    02 Jan 2000 17:50:56.359      677.81089994    
03 Jan 2000 05:55:13.443    03 Jan 2000 06:06:29.862      676.41922856    
03 Jan 2000 07:36:48.345    03 Jan 2000 07:41:45.675      297.33021971    
03 Jan 2000 17:04:34.055    03 Jan 2000 17:15:42.268      668.21286465    
03 Jan 2000 18:46:19.355    03 Jan 2000 18:52:36.104      376.74930651    
04 Jan 2000 05:20:26.347    04 Jan 2000 05:30:45.354      619.00696767    
04 Jan 2000 06:59:53.268    04 Jan 2000 07:08:59.587      546.31811619    
04 Jan 2000 16:30:13.549    04 Jan 2000 16:39:59.599      586.05007416    
04 Jan 2000 18:09:06.742    04 Jan 2000 18:18:59.711      592.96910064    
05 Jan 2000 04:46:27.620    05 Jan 2000 04:53:58.665      451.04450646    
05 Jan 2000 06:24:01.427    05 Jan 2000 06:34:52.435      651.00825318    
05 Jan 2000 15:56:57.057    05 Jan 2000 16:03:30.180      393.12298555    
05 Jan 2000 17:33:09.362    05 Jan 2000 17:44:21.921      672.55925717    
06 Jan 2000 05:48:40.249    06 Jan 2000 05:59:58.819      678.57002973    
06 Jan 2000 07:30:54.291    06 Jan 2000 07:34:26.454      212.16292178    


Number of events : 20


Observer: SC
Start Time (UTC)            Stop Time (UTC)               Duration (s)         
01 Jan 2000 16:35:53.770    01 Jan 2000 16:45:46.216      592.44555691    
01 Jan 2000 18:14:59.573    01 Jan 2000 18:24:35.405      575.83202521    
02 Jan 2000 04:53:12.097    02 Jan 2000 05:01:31.193      499.09586019    
02 Jan 2000 06:31:12.563    02 Jan 2000 06:41:43.475      630.91122285    
02 Jan 2000 16:02:36.624    02 Jan 2000 16:09:15.370      398.74639789    
02 Jan 2000 17:38:55.872    02 Jan 2000 17:50:04.366      668.49384973    
03 Jan 2000 05:55:43.460    03 Jan 2000 06:07:01.800      678.34031582    
03 Jan 2000 17:03:40.682    03 Jan 2000 17:14:58.005      677.32221696    
03 Jan 2000 18:46:50.682    03 Jan 2000 18:50:32.888      222.20600343    
04 Jan 2000 05:20:44.351    04 Jan 2000 05:31:36.138      651.78657890    
04 Jan 2000 07:01:02.111    04 Jan 2000 07:08:38.291      456.18033690    
04 Jan 2000 16:29:09.826    04 Jan 2000 16:39:21.663      611.83692258    
04 Jan 2000 18:08:42.518    04 Jan 2000 18:17:51.386      548.86891457    
05 Jan 2000 04:46:24.895    05 Jan 2000 04:55:17.823      532.92806548    
05 Jan 2000 06:24:46.530    05 Jan 2000 06:35:01.662      615.13233602    
05 Jan 2000 15:55:37.996    05 Jan 2000 16:03:02.533      444.53759647    
05 Jan 2000 17:32:28.740    05 Jan 2000 17:43:28.268      659.52874735    
06 Jan 2000 04:14:08.306    06 Jan 2000 04:16:43.884      155.57802357    
06 Jan 2000 05:49:12.188    06 Jan 2000 06:00:27.729      675.54093859    


Number of events : 19


Observer: SE
Start Time (UTC)            Stop Time (UTC)               Duration (s)         
01 Jan 2000 16:30:00.565    01 Jan 2000 16:41:09.839      669.27343619    
01 Jan 2000 18:12:52.880    01 Jan 2000 18:16:14.991      202.11110859    
02 Jan 2000 04:55:48.148    02 Jan 2000 05:07:08.704      680.55683153    
02 Jan 2000 15:55:50.031    02 Jan 2000 16:05:12.346      562.31452755    
02 Jan 2000 17:34:41.651    02 Jan 2000 17:44:01.441      559.78985808    
03 Jan 2000 04:21:06.049    03 Jan 2000 04:31:31.081      625.03236656    
03 Jan 2000 06:01:18.945    03 Jan 2000 06:08:48.189      449.24434775    
03 Jan 2000 15:23:30.662    03 Jan 2000 15:27:34.414      243.75205936    
03 Jan 2000 16:58:35.831    03 Jan 2000 17:09:45.419      669.58832805    
04 Jan 2000 03:47:29.843    04 Jan 2000 03:54:43.632      433.78883915    
04 Jan 2000 05:24:48.264    04 Jan 2000 05:35:15.582      627.31824388    
04 Jan 2000 16:23:23.763    04 Jan 2000 16:34:40.650      676.88710346    
05 Jan 2000 04:49:15.412    05 Jan 2000 05:00:36.050      680.63750368    
05 Jan 2000 15:49:02.947    05 Jan 2000 15:58:51.948      589.00108505    
05 Jan 2000 17:28:26.021    05 Jan 2000 17:37:12.917      526.89565629    
06 Jan 2000 04:14:25.509    06 Jan 2000 04:25:07.097      641.58759259    
06 Jan 2000 05:55:10.973    06 Jan 2000 06:01:47.422      396.44957496    


Number of events : 17


Observer: SP
Start Time (UTC)            Stop Time (UTC)               Duration (s)         
01 Jan 2000 16:34:36.941    01 Jan 2000 16:44:37.423      600.48243968    
01 Jan 2000 18:14:00.743    01 Jan 2000 18:23:09.232      548.48939446    
02 Jan 2000 04:53:48.012    02 Jan 2000 05:03:06.337      558.32465688    
02 Jan 2000 06:32:30.294    02 Jan 2000 06:42:16.682      586.38864951    
02 Jan 2000 16:01:19.423    02 Jan 2000 16:08:03.688      404.26501549    
02 Jan 2000 17:37:47.663    02 Jan 2000 17:48:49.236      661.57257899    
03 Jan 2000 04:21:02.288    03 Jan 2000 04:25:09.158      246.86982277    
03 Jan 2000 05:56:46.078    03 Jan 2000 06:07:55.385      669.30671433    
03 Jan 2000 17:02:27.424    03 Jan 2000 17:13:47.783      680.35948329    
04 Jan 2000 05:21:36.267    04 Jan 2000 05:32:46.468      670.20059244    
04 Jan 2000 07:03:08.811    04 Jan 2000 07:08:16.579      307.76760651    
04 Jan 2000 16:27:53.368    04 Jan 2000 16:38:12.928      619.56000072    
04 Jan 2000 18:07:46.339    04 Jan 2000 18:16:22.085      515.74636929    
05 Jan 2000 04:47:04.065    05 Jan 2000 04:56:48.293      584.22855983    
05 Jan 2000 06:26:07.884    05 Jan 2000 06:35:30.397      562.51255850    
05 Jan 2000 15:54:20.506    05 Jan 2000 16:01:51.769      451.26275519    
05 Jan 2000 17:31:21.666    05 Jan 2000 17:42:11.857      650.19139010    
06 Jan 2000 04:13:47.843    06 Jan 2000 04:19:23.381      335.53753013    
06 Jan 2000 05:50:16.858    06 Jan 2000 06:01:18.337      661.47938994    


Number of events : 19


Observer: TO
Start Time (UTC)            Stop Time (UTC)               Duration (s)         
01 Jan 2000 16:32:17.160    01 Jan 2000 16:40:03.391      466.23133819    
01 Jan 2000 18:09:44.106    01 Jan 2000 18:20:07.597      623.49111813    
02 Jan 2000 04:57:31.092    02 Jan 2000 05:07:01.171      570.07857560    
02 Jan 2000 06:36:34.848    02 Jan 2000 06:45:36.354      541.50655445    
02 Jan 2000 17:34:04.083    02 Jan 2000 17:45:28.063      683.98002918    
03 Jan 2000 04:24:56.855    03 Jan 2000 04:29:11.682      254.82637159    
03 Jan 2000 06:00:31.579    03 Jan 2000 06:11:31.968      660.38913892    
03 Jan 2000 16:59:13.542    03 Jan 2000 17:10:04.640      651.09785552    
03 Jan 2000 18:40:35.739    03 Jan 2000 18:46:34.800      359.06041979    
04 Jan 2000 05:25:16.010    04 Jan 2000 05:36:32.283      676.27275700    
04 Jan 2000 16:25:22.354    04 Jan 2000 16:33:49.993      507.63912412    
04 Jan 2000 18:03:22.406    04 Jan 2000 18:13:24.805      602.39931000    
05 Jan 2000 04:50:46.055    05 Jan 2000 05:00:41.822      595.76752579    
05 Jan 2000 06:30:18.214    05 Jan 2000 06:38:45.151      506.93684280    
05 Jan 2000 17:27:33.154    05 Jan 2000 17:38:53.780      680.62638519    
06 Jan 2000 04:17:39.746    06 Jan 2000 04:23:24.703      344.95686303    
06 Jan 2000 05:54:04.351    06 Jan 2000 06:04:52.917      648.56559110    


Number of events : 17


