python_scritps/data/CBERSContact.txt

Target: CBERS4A

Observer: AC
Start Time (UTC)            Stop Time (UTC)               Duration (s)         
01 Jan 2000 18:10:59.424    01 Jan 2000 18:21:02.092      602.66851431    
01 Jan 2000 19:50:41.701    01 Jan 2000 19:59:04.899      503.19810547    
02 Jan 2000 06:36:54.111    02 Jan 2000 06:47:47.941      653.83046555    
02 Jan 2000 08:18:16.017    02 Jan 2000 08:23:48.667      332.64955042    
02 Jan 2000 17:37:53.731    02 Jan 2000 17:44:06.480      372.74878663    
02 Jan 2000 19:14:16.533    02 Jan 2000 19:25:08.087      651.55437682    
03 Jan 2000 06:02:51.599    03 Jan 2000 06:11:28.643      517.04455772    
03 Jan 2000 07:41:08.490    03 Jan 2000 07:50:55.691      587.20076509    


Number of events : 8


Observer: AL
Start Time (UTC)            Stop Time (UTC)               Duration (s)         
01 Jan 2000 16:29:32.312    01 Jan 2000 16:40:47.977      675.66502701    
02 Jan 2000 04:56:03.724    02 Jan 2000 05:07:24.225      680.50107092    
02 Jan 2000 15:55:13.739    02 Jan 2000 16:04:56.848      583.10840459    
02 Jan 2000 17:34:30.046    02 Jan 2000 17:43:23.086      533.04012010    
03 Jan 2000 04:21:12.626    03 Jan 2000 04:31:57.072      644.44536602    
03 Jan 2000 06:02:07.783    03 Jan 2000 06:08:27.761      379.97807125    


Number of events : 6


Observer: AM
Start Time (UTC)            Stop Time (UTC)               Duration (s)         
01 Jan 2000 18:08:02.825    01 Jan 2000 18:19:16.098      673.27257274    
01 Jan 2000 19:51:39.031    01 Jan 2000 19:53:19.918      100.88697039    
02 Jan 2000 06:38:08.822    02 Jan 2000 06:49:23.443      674.62100418    
02 Jan 2000 17:33:48.739    02 Jan 2000 17:43:17.800      569.06078635    
02 Jan 2000 19:12:50.189    02 Jan 2000 19:21:55.078      544.88829846    
03 Jan 2000 06:03:05.633    03 Jan 2000 06:14:10.720      665.08690092    
03 Jan 2000 07:45:41.462    03 Jan 2000 07:49:03.332      201.87047798    


Number of events : 7


Observer: AP
Start Time (UTC)            Stop Time (UTC)               Duration (s)         
01 Jan 2000 16:32:32.818    01 Jan 2000 16:34:28.298      115.47986423    
01 Jan 2000 18:06:40.265    01 Jan 2000 18:17:53.912      673.64700775    
02 Jan 2000 05:00:36.695    02 Jan 2000 05:09:54.455      557.76002600    
02 Jan 2000 06:39:30.648    02 Jan 2000 06:48:38.863      548.21521413    
02 Jan 2000 17:31:31.418    02 Jan 2000 17:42:47.166      675.74823762    
03 Jan 2000 04:28:31.140    03 Jan 2000 04:31:49.965      198.82515842    
03 Jan 2000 06:03:25.236    03 Jan 2000 06:14:30.257      665.02032640    


Number of events : 7


Observer: BA
Start Time (UTC)            Stop Time (UTC)               Duration (s)         
01 Jan 2000 16:30:42.884    01 Jan 2000 16:41:44.889      662.00472341    
01 Jan 2000 18:12:46.153    01 Jan 2000 18:17:41.697      295.54350735    
02 Jan 2000 04:55:21.844    02 Jan 2000 05:06:37.776      675.93241045    
02 Jan 2000 15:56:39.786    02 Jan 2000 16:05:42.101      542.31502548    
02 Jan 2000 17:35:09.289    02 Jan 2000 17:44:51.306      582.01688592    
03 Jan 2000 04:20:50.486    03 Jan 2000 04:30:47.048      596.56219842    
03 Jan 2000 06:00:20.525    03 Jan 2000 06:08:52.716      512.19105169    


Number of events : 7


Observer: CE
Start Time (UTC)            Stop Time (UTC)               Duration (s)         
01 Jan 2000 16:28:23.297    01 Jan 2000 16:39:04.913      641.61608960    
01 Jan 2000 18:09:17.428    01 Jan 2000 18:15:52.125      394.69727796    
02 Jan 2000 04:57:49.151    02 Jan 2000 05:09:10.736      681.58522662    
02 Jan 2000 15:54:42.376    02 Jan 2000 16:02:36.292      473.91537511    
02 Jan 2000 17:32:19.236    02 Jan 2000 17:42:34.507      615.27071788    
03 Jan 2000 04:23:08.811    03 Jan 2000 04:33:34.441      625.63029350    
03 Jan 2000 06:03:32.116    03 Jan 2000 06:10:45.099      432.98250017    


Number of events : 7


Observer: ES
Start Time (UTC)            Stop Time (UTC)               Duration (s)         
01 Jan 2000 16:32:48.415    01 Jan 2000 16:43:49.907      661.49227900    
01 Jan 2000 18:14:34.887    01 Jan 2000 18:20:18.559      343.67234664    
02 Jan 2000 04:53:37.701    02 Jan 2000 05:04:32.989      655.28794796    
02 Jan 2000 06:34:29.383    02 Jan 2000 06:40:57.265      387.88200330    
02 Jan 2000 15:58:42.086    02 Jan 2000 16:07:53.293      551.20682182    
02 Jan 2000 17:37:12.538    02 Jan 2000 17:47:04.290      591.75248395    
03 Jan 2000 04:19:23.957    03 Jan 2000 04:28:15.990      532.03337548    
03 Jan 2000 05:57:48.544    03 Jan 2000 06:07:44.833      596.28846663    


Number of events : 8


Observer: GO
Start Time (UTC)            Stop Time (UTC)               Duration (s)         
01 Jan 2000 16:33:50.666    01 Jan 2000 16:42:08.685      498.01952890    
01 Jan 2000 18:11:36.711    01 Jan 2000 18:21:54.921      618.21045029    
02 Jan 2000 04:56:08.964    02 Jan 2000 05:04:50.603      521.63855501    
02 Jan 2000 06:34:27.494    02 Jan 2000 06:44:22.344      594.85075566    
02 Jan 2000 17:35:53.055    02 Jan 2000 17:47:15.233      682.17801943    
03 Jan 2000 05:58:43.749    03 Jan 2000 06:09:57.758      674.00945141    


Number of events : 6


Observer: MA
Start Time (UTC)            Stop Time (UTC)               Duration (s)         
01 Jan 2000 16:29:14.169    01 Jan 2000 16:38:10.098      535.92954443    
01 Jan 2000 18:07:42.630    01 Jan 2000 18:17:19.323      576.69317649    
02 Jan 2000 04:58:43.486    02 Jan 2000 05:09:40.053      656.56737989    
02 Jan 2000 06:40:32.318    02 Jan 2000 06:45:22.703      290.38503226    
02 Jan 2000 17:31:45.214    02 Jan 2000 17:43:00.929      675.71536023    
03 Jan 2000 04:24:43.073    03 Jan 2000 04:33:24.956      521.88349591    
03 Jan 2000 06:03:03.937    03 Jan 2000 06:12:43.208      579.27021818    


Number of events : 7


Observer: MG
Start Time (UTC)            Stop Time (UTC)               Duration (s)         
01 Jan 2000 16:33:16.015    01 Jan 2000 16:43:39.159      623.14415103    
01 Jan 2000 18:13:21.491    01 Jan 2000 18:21:33.230      491.73926819    
02 Jan 2000 04:54:13.692    02 Jan 2000 05:04:29.576      615.88345502    
02 Jan 2000 06:33:56.567    02 Jan 2000 06:42:19.945      503.37769204    
02 Jan 2000 15:59:43.894    02 Jan 2000 16:07:14.845      450.95178103    
02 Jan 2000 17:36:49.452    02 Jan 2000 17:47:33.116      643.66348532    
03 Jan 2000 04:20:34.525    03 Jan 2000 04:27:34.469      419.94321450    
03 Jan 2000 05:57:47.365    03 Jan 2000 06:08:29.113      641.74785657    


Number of events : 8


Observer: MS
Start Time (UTC)            Stop Time (UTC)               Duration (s)         
01 Jan 2000 16:36:34.314    01 Jan 2000 16:42:22.610      348.29595394    
01 Jan 2000 18:12:30.280    01 Jan 2000 18:23:36.966      666.68610770    
02 Jan 2000 04:57:21.777    02 Jan 2000 05:01:50.324      268.54663168    
02 Jan 2000 06:33:13.336    02 Jan 2000 06:44:18.635      665.29856996    
02 Jan 2000 17:37:14.748    02 Jan 2000 17:48:32.909      678.16127145    
03 Jan 2000 05:58:00.847    03 Jan 2000 06:09:14.066      673.21879644    
03 Jan 2000 07:40:16.131    03 Jan 2000 07:43:59.210      223.07903732    


Number of events : 7


Observer: MT
Start Time (UTC)            Stop Time (UTC)               Duration (s)         
01 Jan 2000 18:11:06.888    01 Jan 2000 18:22:26.581      679.69271148    
02 Jan 2000 04:59:25.075    02 Jan 2000 05:02:48.122      203.04705673    
02 Jan 2000 06:34:37.766    02 Jan 2000 06:45:44.370      666.60359896    
02 Jan 2000 17:36:06.866    02 Jan 2000 17:47:11.128      664.26254724    
02 Jan 2000 19:18:17.864    02 Jan 2000 19:23:06.360      288.49546452    
03 Jan 2000 05:59:26.693    03 Jan 2000 06:10:38.884      672.19024482    
03 Jan 2000 07:42:09.941    03 Jan 2000 07:45:01.896      171.95480402    


Number of events : 7


Observer: PA
Start Time (UTC)            Stop Time (UTC)               Duration (s)         
01 Jan 2000 16:30:42.052    01 Jan 2000 16:36:48.646      366.59326687    
01 Jan 2000 18:07:07.854    01 Jan 2000 18:17:56.835      648.98117047    
02 Jan 2000 04:59:40.823    02 Jan 2000 05:09:42.664      601.84149079    
02 Jan 2000 06:39:27.081    02 Jan 2000 06:47:33.514      486.43328743    
02 Jan 2000 17:31:41.719    02 Jan 2000 17:43:07.198      685.47892846    
03 Jan 2000 04:26:34.833    03 Jan 2000 04:32:35.479      360.64603123    
03 Jan 2000 06:03:02.209    03 Jan 2000 06:13:46.535      644.32567087    


Number of events : 7


Observer: PB
Start Time (UTC)            Stop Time (UTC)               Duration (s)         
01 Jan 2000 16:28:47.104    01 Jan 2000 16:40:04.541      677.43767191    
02 Jan 2000 04:56:43.364    02 Jan 2000 05:08:00.961      677.59702059    
02 Jan 2000 15:54:26.513    02 Jan 2000 16:04:14.107      587.59376707    
02 Jan 2000 17:33:49.342    02 Jan 2000 17:42:32.757      523.41461722    
03 Jan 2000 04:21:44.781    03 Jan 2000 04:32:42.722      657.94040918    
03 Jan 2000 06:03:30.172    03 Jan 2000 06:08:21.795      291.62226780    


Number of events : 6


Observer: PE
Start Time (UTC)            Stop Time (UTC)               Duration (s)         
01 Jan 2000 16:29:01.825    01 Jan 2000 16:40:20.084      678.25889684    
02 Jan 2000 04:56:27.986    02 Jan 2000 05:07:46.111      678.12524677    
02 Jan 2000 15:54:39.676    02 Jan 2000 16:04:31.415      591.73951128    
02 Jan 2000 17:34:07.599    02 Jan 2000 17:42:45.923      518.32376586    
03 Jan 2000 04:21:30.401    03 Jan 2000 04:32:26.570      656.16922273    
03 Jan 2000 06:03:06.059    03 Jan 2000 06:08:14.804      308.74506205    


Number of events : 6


Observer: PI
Start Time (UTC)            Stop Time (UTC)               Duration (s)         
01 Jan 2000 16:29:33.505    01 Jan 2000 16:39:12.079      578.57385271    
01 Jan 2000 18:08:45.660    01 Jan 2000 18:17:39.752      534.09149837    
02 Jan 2000 04:57:51.570    02 Jan 2000 05:08:53.285      661.71495714    
02 Jan 2000 06:40:00.664    02 Jan 2000 06:44:10.329      249.66492711    
02 Jan 2000 15:56:57.674    02 Jan 2000 16:01:43.440      285.76614198    
02 Jan 2000 17:32:32.539    02 Jan 2000 17:43:35.260      662.72088736    
03 Jan 2000 04:23:44.169    03 Jan 2000 04:32:43.004      538.83554890    
03 Jan 2000 06:02:20.076    03 Jan 2000 06:11:46.756      566.68095365    


Number of events : 8


Observer: PR
Start Time (UTC)            Stop Time (UTC)               Duration (s)         
01 Jan 2000 16:35:36.007    01 Jan 2000 16:45:02.609      566.60173115    
01 Jan 2000 18:14:15.161    01 Jan 2000 18:24:09.571      594.41023740    
02 Jan 2000 04:53:57.169    02 Jan 2000 05:02:03.081      485.91196784    
02 Jan 2000 06:31:49.816    02 Jan 2000 06:42:20.914      631.09772354    
02 Jan 2000 16:02:44.640    02 Jan 2000 16:08:08.189      323.54829503    
02 Jan 2000 17:38:19.317    02 Jan 2000 17:49:34.118      674.80177480    
03 Jan 2000 05:56:20.514    03 Jan 2000 06:07:39.255      678.74083731    


Number of events : 7


Observer: RJ
Start Time (UTC)            Stop Time (UTC)               Duration (s)         
01 Jan 2000 16:33:51.026    01 Jan 2000 16:44:33.089      642.06222980    
01 Jan 2000 18:14:30.125    01 Jan 2000 18:22:04.350      454.22510176    
02 Jan 2000 04:53:20.674    02 Jan 2000 05:03:39.507      618.83367633    
02 Jan 2000 06:33:01.400    02 Jan 2000 06:41:32.776      511.37639168    
02 Jan 2000 16:00:00.541    02 Jan 2000 16:08:25.482      504.94066228    
02 Jan 2000 17:37:44.701    02 Jan 2000 17:48:12.900      628.19870455    
03 Jan 2000 04:19:34.333    03 Jan 2000 04:26:48.396      434.06296007    
03 Jan 2000 05:56:56.265    03 Jan 2000 06:07:38.914      642.64847625    


Number of events : 8


Observer: RN
Start Time (UTC)            Stop Time (UTC)               Duration (s)         
01 Jan 2000 16:28:29.000    01 Jan 2000 16:39:43.376      674.37659166    
02 Jan 2000 04:57:05.185    02 Jan 2000 05:08:23.088      677.90241523    
02 Jan 2000 15:54:13.092    02 Jan 2000 16:03:48.157      575.06499306    
02 Jan 2000 17:33:21.114    02 Jan 2000 17:42:20.068      538.95343827    
03 Jan 2000 04:22:07.090    03 Jan 2000 04:33:04.600      657.51019187    
03 Jan 2000 06:03:53.859    03 Jan 2000 06:08:44.090      290.23140392    


Number of events : 6


Observer: RO
Start Time (UTC)            Stop Time (UTC)               Duration (s)         
01 Jan 2000 18:10:00.066    01 Jan 2000 18:20:51.223      651.15746594    
01 Jan 2000 19:51:22.842    01 Jan 2000 19:57:18.285      355.44389093    
02 Jan 2000 06:36:48.664    02 Jan 2000 06:48:07.179      678.51441874    
02 Jan 2000 17:36:09.239    02 Jan 2000 17:44:35.304      506.06505456    
02 Jan 2000 19:14:08.947    02 Jan 2000 19:24:10.615      601.66780403    
03 Jan 2000 06:02:15.129    03 Jan 2000 06:12:21.416      606.28651326    
03 Jan 2000 07:42:02.443    03 Jan 2000 07:50:08.117      485.67383671    


Number of events : 7


Observer: RR
Start Time (UTC)            Stop Time (UTC)               Duration (s)         
01 Jan 2000 18:06:35.648    01 Jan 2000 18:17:35.120      659.47225312    
01 Jan 2000 19:48:14.012    01 Jan 2000 19:53:27.842      313.82989604    
02 Jan 2000 06:39:48.360    02 Jan 2000 06:51:00.765      672.40504387    
02 Jan 2000 17:32:36.629    02 Jan 2000 17:41:18.548      521.91905729    
02 Jan 2000 19:10:52.810    02 Jan 2000 19:20:41.404      588.59423501    
03 Jan 2000 06:04:41.724    03 Jan 2000 06:15:51.738      670.01377302    
03 Jan 2000 07:48:19.160    03 Jan 2000 07:49:53.478      94.317945780    


Number of events : 7


Observer: RS
Start Time (UTC)            Stop Time (UTC)               Duration (s)         
01 Jan 2000 16:36:59.441    01 Jan 2000 16:46:22.982      563.54149327    
01 Jan 2000 18:15:27.352    01 Jan 2000 18:25:40.391      613.03848610    
02 Jan 2000 04:53:21.562    02 Jan 2000 05:00:03.888      402.32533047    
02 Jan 2000 06:30:30.035    02 Jan 2000 06:41:30.571      660.53610899    
02 Jan 2000 16:04:00.565    02 Jan 2000 16:09:39.082      338.51708643    
02 Jan 2000 17:39:38.549    02 Jan 2000 17:50:56.359      677.81089994    
03 Jan 2000 05:55:13.443    03 Jan 2000 06:06:29.862      676.41922793    
03 Jan 2000 07:36:48.345    03 Jan 2000 07:41:45.675      297.33022316    


Number of events : 8


Observer: SC
Start Time (UTC)            Stop Time (UTC)               Duration (s)         
01 Jan 2000 16:35:53.770    01 Jan 2000 16:45:46.216      592.44555628    
01 Jan 2000 18:14:59.573    01 Jan 2000 18:24:35.405      575.83202646    
02 Jan 2000 04:53:12.097    02 Jan 2000 05:01:31.193      499.09585799    
02 Jan 2000 06:31:12.563    02 Jan 2000 06:41:43.475      630.91122316    
02 Jan 2000 16:02:36.624    02 Jan 2000 16:09:15.370      398.74639569    
02 Jan 2000 17:38:55.872    02 Jan 2000 17:50:04.366      668.49385004    
03 Jan 2000 05:55:43.460    03 Jan 2000 06:07:01.800      678.34031550    


Number of events : 7


Observer: SE
Start Time (UTC)            Stop Time (UTC)               Duration (s)         
01 Jan 2000 16:30:00.565    01 Jan 2000 16:41:09.839      669.27343619    
01 Jan 2000 18:12:52.880    01 Jan 2000 18:16:14.991      202.11111550    
02 Jan 2000 04:55:48.148    02 Jan 2000 05:07:08.704      680.55683185    
02 Jan 2000 15:55:50.031    02 Jan 2000 16:05:12.346      562.31452598    
02 Jan 2000 17:34:41.651    02 Jan 2000 17:44:01.441      559.78985965    
03 Jan 2000 04:21:06.049    03 Jan 2000 04:31:31.081      625.03236593    
03 Jan 2000 06:01:18.945    03 Jan 2000 06:08:48.189      449.24434964    


Number of events : 7


Observer: SP
Start Time (UTC)            Stop Time (UTC)               Duration (s)         
01 Jan 2000 16:34:36.941    01 Jan 2000 16:44:37.423      600.48243811    
01 Jan 2000 18:14:00.743    01 Jan 2000 18:23:09.232      548.48939572    
02 Jan 2000 04:53:48.012    02 Jan 2000 05:03:06.337      558.32465594    
02 Jan 2000 06:32:30.294    02 Jan 2000 06:42:16.682      586.38865077    
02 Jan 2000 16:01:19.423    02 Jan 2000 16:08:03.688      404.26501360    
02 Jan 2000 17:37:47.663    02 Jan 2000 17:48:49.236      661.57257962    
03 Jan 2000 04:21:02.288    03 Jan 2000 04:25:09.158      246.86981837    
03 Jan 2000 05:56:46.078    03 Jan 2000 06:07:55.385      669.30671496    


Number of events : 8


Observer: TO
Start Time (UTC)            Stop Time (UTC)               Duration (s)         
01 Jan 2000 16:32:17.160    01 Jan 2000 16:40:03.391      466.23133599    
01 Jan 2000 18:09:44.106    01 Jan 2000 18:20:07.597      623.49111844    
02 Jan 2000 04:57:31.092    02 Jan 2000 05:07:01.171      570.07857434    
02 Jan 2000 06:36:34.848    02 Jan 2000 06:45:36.354      541.50655634    
02 Jan 2000 17:34:04.083    02 Jan 2000 17:45:28.063      683.98002918    
03 Jan 2000 04:24:56.855    03 Jan 2000 04:29:11.682      254.82636751    
03 Jan 2000 06:00:31.579    03 Jan 2000 06:11:31.968      660.38913955    


Number of events : 7


