python_scritps/data/SCD1Contact.txt

Target: SCD1

Observer: EMMN
Start Time (UTC)            Stop Time (UTC)               Duration (s)         
01 Jan 2000 12:32:51.466    01 Jan 2000 12:42:28.690      577.22381760    
01 Jan 2000 14:22:01.099    01 Jan 2000 14:27:52.984      351.88573689    
01 Jan 2000 16:09:41.973    01 Jan 2000 16:15:28.012      346.03923715    
01 Jan 2000 17:55:07.616    01 Jan 2000 18:04:38.859      571.24325791    
01 Jan 2000 19:40:36.680    01 Jan 2000 19:52:29.501      712.82019034    
01 Jan 2000 21:27:10.834    01 Jan 2000 21:38:29.806      678.97201659    
01 Jan 2000 23:16:24.904    01 Jan 2000 23:22:10.128      345.22336638    
02 Jan 2000 08:12:32.771    02 Jan 2000 08:22:18.775      586.00422033    
02 Jan 2000 09:57:41.956    02 Jan 2000 10:09:43.721      721.76507934    
02 Jan 2000 11:44:43.902    02 Jan 2000 11:55:34.574      650.67243852    


Number of events : 10


Observer: ETA
Start Time (UTC)            Stop Time (UTC)               Duration (s)         
01 Jan 2000 12:30:04.477    01 Jan 2000 12:39:25.814      561.33636385    
01 Jan 2000 14:21:04.820    01 Jan 2000 14:22:51.992      107.17261636    
01 Jan 2000 17:55:05.149    01 Jan 2000 17:59:58.738      293.58974638    
01 Jan 2000 19:39:22.359    01 Jan 2000 19:49:44.352      621.99372916    
01 Jan 2000 21:24:58.334    01 Jan 2000 21:36:58.968      720.63366511    
01 Jan 2000 23:12:14.611    01 Jan 2000 23:22:21.203      606.59230269    
02 Jan 2000 08:09:51.003    02 Jan 2000 08:19:16.901      565.89855119    
02 Jan 2000 09:54:56.835    02 Jan 2000 10:06:53.576      716.74064471    
02 Jan 2000 11:41:53.163    02 Jan 2000 11:52:41.485      648.32192949    


Number of events : 9


Observer: ETC
Start Time (UTC)            Stop Time (UTC)               Duration (s)         
01 Jan 2000 12:26:59.435    01 Jan 2000 12:38:58.240      718.80498991    
01 Jan 2000 14:13:23.563    01 Jan 2000 14:25:21.051      717.48764327    
01 Jan 2000 16:00:35.218    01 Jan 2000 16:11:46.537      671.31866090    
01 Jan 2000 17:47:27.529    01 Jan 2000 17:58:50.346      682.81709229    
01 Jan 2000 19:33:45.892    01 Jan 2000 19:45:55.132      729.24077148    
01 Jan 2000 21:20:21.275    01 Jan 2000 21:31:53.428      692.15210471    
01 Jan 2000 23:09:04.307    01 Jan 2000 23:15:28.065      383.75827542    
02 Jan 2000 09:57:04.775    02 Jan 2000 10:02:04.243      299.46802809    
02 Jan 2000 11:40:05.932    02 Jan 2000 11:51:22.377      676.44493313    


Number of events : 9


