python_scritps/data/SCD1Contact.txt

Target: SCD1

Observer: AC
Start Time (UTC)            Stop Time (UTC)               Duration (s)         
01 Jan 2000 12:23:14.480    01 Jan 2000 12:35:09.679      715.19932713    
01 Jan 2000 14:09:46.884    01 Jan 2000 14:21:23.199      696.31569986    
01 Jan 2000 15:57:38.540    01 Jan 2000 16:07:17.990      579.45027781    
01 Jan 2000 17:45:23.405    01 Jan 2000 17:54:10.093      526.68769844    
01 Jan 2000 19:31:46.605    01 Jan 2000 19:42:11.279      624.67324025    
01 Jan 2000 21:17:39.720    01 Jan 2000 21:29:40.959      721.23876612    
01 Jan 2000 23:04:17.637    01 Jan 2000 23:15:36.287      678.65086596    
02 Jan 2000 00:53:40.330    02 Jan 2000 00:58:53.359      313.02886092    
02 Jan 2000 09:53:23.350    02 Jan 2000 09:57:47.068      263.71739722    
02 Jan 2000 11:36:21.422    02 Jan 2000 11:47:30.805      669.38335437    
02 Jan 2000 13:22:10.865    02 Jan 2000 13:34:13.119      722.25449594    
02 Jan 2000 15:09:36.408    02 Jan 2000 15:20:06.854      630.44564469    
02 Jan 2000 16:57:38.305    02 Jan 2000 17:06:26.811      528.50570746    
02 Jan 2000 18:44:34.613    02 Jan 2000 18:54:08.641      574.02744682    
02 Jan 2000 20:30:30.317    02 Jan 2000 20:42:02.940      692.62294744    
02 Jan 2000 22:16:41.122    02 Jan 2000 22:28:40.633      719.51138255    
03 Jan 2000 00:04:28.424    03 Jan 2000 00:13:21.991      533.56715846    
03 Jan 2000 10:49:51.162    03 Jan 2000 10:59:27.669      576.50704418    
03 Jan 2000 12:34:51.112    03 Jan 2000 12:46:55.158      724.04546358    
03 Jan 2000 14:21:41.361    03 Jan 2000 14:32:59.883      678.52165442    
03 Jan 2000 16:09:40.316    03 Jan 2000 16:18:59.410      559.09357716    
03 Jan 2000 17:57:11.948    03 Jan 2000 18:06:07.914      535.96651208    
03 Jan 2000 19:43:23.569    03 Jan 2000 19:54:11.359      647.79010497    
03 Jan 2000 21:29:19.545    03 Jan 2000 21:41:26.436      726.89059123    
03 Jan 2000 23:16:14.415    03 Jan 2000 23:27:00.964      646.54865186    
04 Jan 2000 10:03:57.654    04 Jan 2000 10:10:41.270      403.61679745    
04 Jan 2000 11:47:49.273    04 Jan 2000 11:59:24.202      694.92928645    
04 Jan 2000 13:33:58.679    04 Jan 2000 13:45:51.838      713.15876663    
04 Jan 2000 15:21:37.443    04 Jan 2000 15:31:44.496      607.05254650    
04 Jan 2000 17:09:34.050    04 Jan 2000 17:18:17.821      523.77081468    
04 Jan 2000 18:56:14.467    04 Jan 2000 19:06:10.666      596.19829600    
04 Jan 2000 20:42:07.425    04 Jan 2000 20:53:55.423      707.99719894    
04 Jan 2000 22:28:28.827    04 Jan 2000 22:40:14.580      705.75313579    
05 Jan 2000 00:16:50.315    05 Jan 2000 00:24:25.226      454.91024974    
05 Jan 2000 11:01:07.939    05 Jan 2000 11:11:33.398      625.45848229    
05 Jan 2000 12:46:31.377    05 Jan 2000 12:58:38.015      726.63770837    
05 Jan 2000 14:33:38.384    05 Jan 2000 14:44:36.340      657.95533065    
05 Jan 2000 16:21:41.094    05 Jan 2000 16:30:43.397      542.30294516    
05 Jan 2000 18:08:57.325    05 Jan 2000 18:18:07.951      550.62539990    
05 Jan 2000 19:55:00.064    05 Jan 2000 20:06:09.548      669.48337111    
05 Jan 2000 21:41:01.283    05 Jan 2000 21:53:08.489      727.20535673    
05 Jan 2000 23:28:16.815    05 Jan 2000 23:38:20.636      603.82126216    
06 Jan 2000 10:14:54.568    06 Jan 2000 10:23:10.449      495.88130938    
06 Jan 2000 11:59:21.243    06 Jan 2000 11:59:59.992      38.749065937    


Number of events : 44


Observer: AL
Start Time (UTC)            Stop Time (UTC)               Duration (s)         
01 Jan 2000 12:32:21.075    01 Jan 2000 12:43:23.731      662.65590205    
01 Jan 2000 14:20:26.319    01 Jan 2000 14:29:25.277      538.95744021    
01 Jan 2000 16:07:51.237    01 Jan 2000 16:16:43.739      532.50258750    
01 Jan 2000 17:53:56.058    01 Jan 2000 18:04:50.441      654.38321822    
01 Jan 2000 19:39:52.692    01 Jan 2000 19:52:00.081      727.38900622    
01 Jan 2000 21:26:55.628    01 Jan 2000 21:37:25.902      630.27462746    
02 Jan 2000 08:13:54.051    02 Jan 2000 08:21:43.231      469.17993100    
02 Jan 2000 09:58:10.933    02 Jan 2000 10:09:58.321      707.38767763    
02 Jan 2000 11:44:33.662    02 Jan 2000 11:56:17.168      703.50619879    
02 Jan 2000 13:32:22.254    02 Jan 2000 13:42:08.401      586.14697944    
02 Jan 2000 15:20:17.251    02 Jan 2000 15:28:49.347      512.09618321    
02 Jan 2000 17:06:48.813    02 Jan 2000 17:16:49.879      601.06641955    
02 Jan 2000 18:52:39.480    02 Jan 2000 19:04:31.844      712.36425117    
02 Jan 2000 20:39:05.634    02 Jan 2000 20:50:43.471      697.83632221    
02 Jan 2000 22:27:44.721    02 Jan 2000 22:34:39.666      414.94510052    
03 Jan 2000 07:29:21.812    03 Jan 2000 07:31:27.174      125.36170656    
03 Jan 2000 09:11:22.831    03 Jan 2000 09:22:14.367      651.53612166    
03 Jan 2000 10:57:01.192    03 Jan 2000 11:09:05.952      724.76061825    
03 Jan 2000 12:44:19.982    03 Jan 2000 12:54:59.901      639.91953969    
03 Jan 2000 14:32:26.788    03 Jan 2000 14:41:10.725      523.93702751    
03 Jan 2000 16:19:34.851    03 Jan 2000 16:28:45.291      550.43957687    
03 Jan 2000 18:05:32.148    03 Jan 2000 18:16:48.049      675.90151423    
03 Jan 2000 19:51:35.288    03 Jan 2000 20:03:40.739      725.45093555    
03 Jan 2000 21:39:00.818    03 Jan 2000 21:48:43.354      582.53622120    
04 Jan 2000 08:24:59.246    04 Jan 2000 08:34:03.036      543.79003539    
04 Jan 2000 10:09:45.557    04 Jan 2000 10:21:45.450      719.89318432    
04 Jan 2000 11:56:26.827    04 Jan 2000 12:07:53.906      687.07819465    
04 Jan 2000 13:44:24.936    04 Jan 2000 13:53:48.078      563.14160106    
04 Jan 2000 15:32:08.147    04 Jan 2000 15:40:45.672      517.52545276    
04 Jan 2000 17:18:26.028    04 Jan 2000 17:28:51.626      625.59830564    
04 Jan 2000 19:04:17.914    04 Jan 2000 19:16:20.096      722.18183050    
04 Jan 2000 20:50:58.708    04 Jan 2000 21:02:11.774      673.06531426    
04 Jan 2000 22:40:35.106    04 Jan 2000 22:45:17.925      282.81856599    
05 Jan 2000 07:39:20.916    05 Jan 2000 07:44:58.438      337.52255727    
05 Jan 2000 09:22:48.335    05 Jan 2000 09:34:10.331      681.99562408    
05 Jan 2000 11:08:47.317    05 Jan 2000 11:20:45.354      718.03642984    
05 Jan 2000 12:56:20.783    05 Jan 2000 13:06:36.568      615.78520004    
05 Jan 2000 14:44:24.883    05 Jan 2000 14:52:59.494      514.61097104    
05 Jan 2000 16:31:15.849    05 Jan 2000 16:40:47.855      572.00622149    
05 Jan 2000 18:17:08.493    05 Jan 2000 18:28:43.057      694.56389258    
05 Jan 2000 20:03:20.502    05 Jan 2000 20:15:17.764      717.26181846    
05 Jan 2000 21:51:14.016    05 Jan 2000 21:59:54.121      520.10503857    
06 Jan 2000 08:36:12.644    06 Jan 2000 08:46:13.011      600.36736726    
06 Jan 2000 10:21:23.908    06 Jan 2000 10:33:29.634      725.72558925    


Number of events : 44


Observer: AM
Start Time (UTC)            Stop Time (UTC)               Duration (s)         
01 Jan 2000 12:24:38.819    01 Jan 2000 12:36:09.491      690.67193836    
01 Jan 2000 14:13:05.334    01 Jan 2000 14:21:10.321      484.98664879    
01 Jan 2000 19:35:52.137    01 Jan 2000 19:43:52.262      480.12522626    
01 Jan 2000 21:20:51.853    01 Jan 2000 21:32:21.601      689.74728378    
01 Jan 2000 23:07:04.725    01 Jan 2000 23:18:46.234      701.50898698    
02 Jan 2000 00:55:26.797    02 Jan 2000 01:03:16.486      469.68936705    
02 Jan 2000 08:08:33.921    02 Jan 2000 08:11:40.507      186.58635216    
02 Jan 2000 09:51:27.783    02 Jan 2000 10:02:06.342      638.55899745    
02 Jan 2000 11:37:05.374    02 Jan 2000 11:49:03.635      718.26000160    
02 Jan 2000 13:24:37.888    02 Jan 2000 13:34:30.903      593.01494253    
02 Jan 2000 15:14:36.032    02 Jan 2000 15:18:50.666      254.63363664    
02 Jan 2000 18:49:24.837    02 Jan 2000 18:54:56.619      331.78224944    
02 Jan 2000 20:33:58.317    02 Jan 2000 20:44:26.529      628.21170174    
02 Jan 2000 22:19:37.487    02 Jan 2000 22:31:38.778      721.29090921    
03 Jan 2000 00:06:55.455    03 Jan 2000 00:16:58.469      603.01359328    
03 Jan 2000 09:04:59.330    03 Jan 2000 09:13:49.934      530.60409618    
03 Jan 2000 10:49:50.736    03 Jan 2000 11:01:43.274      712.53792944    
03 Jan 2000 12:36:33.982    03 Jan 2000 12:47:41.611      667.62925002    
03 Jan 2000 14:25:26.662    03 Jan 2000 14:32:31.076      424.41328556    
03 Jan 2000 18:03:36.397    03 Jan 2000 18:05:07.655      91.257375036    
03 Jan 2000 19:47:14.907    03 Jan 2000 19:56:08.800      533.89300694    
03 Jan 2000 21:32:26.120    03 Jan 2000 21:44:13.046      706.92510847    
03 Jan 2000 23:18:56.780    03 Jan 2000 23:30:17.285      680.50473748    
04 Jan 2000 01:07:58.334    04 Jan 2000 01:14:18.475      380.14141935    
04 Jan 2000 08:19:04.704    04 Jan 2000 08:24:47.492      342.78880750    
04 Jan 2000 10:02:53.909    04 Jan 2000 10:14:04.631      670.72238257    
04 Jan 2000 11:48:51.511    04 Jan 2000 12:00:41.366      709.85492498    
04 Jan 2000 13:36:47.746    04 Jan 2000 13:45:56.317      548.57109350    
04 Jan 2000 15:27:27.441    04 Jan 2000 15:29:50.919      143.47785409    
04 Jan 2000 19:00:41.730    04 Jan 2000 19:07:25.984      404.25361977    
04 Jan 2000 20:45:27.554    04 Jan 2000 20:56:27.521      659.96658508    
04 Jan 2000 22:31:21.057    04 Jan 2000 22:43:17.817      716.75949394    
05 Jan 2000 00:19:05.149    05 Jan 2000 00:28:16.532      551.38232379    
05 Jan 2000 09:16:15.685    05 Jan 2000 09:26:02.006      586.32099027    
05 Jan 2000 11:01:28.575    05 Jan 2000 11:13:27.939      719.36400763    
05 Jan 2000 12:48:33.502    05 Jan 2000 12:59:11.517      638.01574105    
05 Jan 2000 14:37:53.906    05 Jan 2000 14:43:49.059      355.15242135    
05 Jan 2000 18:14:25.937    05 Jan 2000 18:18:10.618      224.68065117    
05 Jan 2000 19:58:39.700    05 Jan 2000 20:08:20.268      580.56839750    
05 Jan 2000 21:44:02.978    05 Jan 2000 21:56:00.471      717.49266047    
05 Jan 2000 23:30:53.455    05 Jan 2000 23:41:44.666      651.21036717    
06 Jan 2000 01:20:51.199    06 Jan 2000 01:25:02.329      251.12965840    
06 Jan 2000 08:30:02.324    06 Jan 2000 08:37:24.346      442.02204515    
06 Jan 2000 10:14:23.761    06 Jan 2000 10:25:58.099      694.33859676    


Number of events : 44


Observer: AP
Start Time (UTC)            Stop Time (UTC)               Duration (s)         
01 Jan 2000 12:27:43.648    01 Jan 2000 12:37:14.235      570.58664529    
01 Jan 2000 19:38:51.838    01 Jan 2000 19:46:47.720      475.88249850    
01 Jan 2000 21:23:37.351    01 Jan 2000 21:35:13.582      696.23044396    
01 Jan 2000 23:09:59.052    01 Jan 2000 23:21:26.847      687.79512428    
02 Jan 2000 00:58:35.363    02 Jan 2000 01:05:58.499      443.13626349    
02 Jan 2000 08:07:47.501    02 Jan 2000 08:16:51.238      543.73623395    
02 Jan 2000 09:52:49.726    02 Jan 2000 10:04:40.374      710.64781226    
02 Jan 2000 11:39:35.338    02 Jan 2000 11:50:32.926      657.58771672    
02 Jan 2000 13:28:58.317    02 Jan 2000 13:34:43.466      345.14928774    
02 Jan 2000 18:52:54.858    02 Jan 2000 18:57:29.380      274.52199657    
02 Jan 2000 20:36:45.258    02 Jan 2000 20:47:23.130      637.87135124    
02 Jan 2000 22:22:26.638    02 Jan 2000 22:34:23.269      716.63050556    
03 Jan 2000 00:09:59.012    03 Jan 2000 00:19:37.302      578.29059478    
03 Jan 2000 07:21:34.358    03 Jan 2000 07:28:02.812      388.45404399    
03 Jan 2000 09:05:50.851    03 Jan 2000 09:17:02.193      671.34213002    
03 Jan 2000 10:51:51.544    03 Jan 2000 11:03:36.558      705.01459813    
03 Jan 2000 12:39:57.712    03 Jan 2000 12:48:33.724      516.01233986    
03 Jan 2000 19:50:08.613    03 Jan 2000 19:59:06.499      537.88537269    
03 Jan 2000 21:35:12.144    03 Jan 2000 21:47:02.618      710.47358770    
03 Jan 2000 23:21:53.888    03 Jan 2000 23:32:56.763      662.87436200    
04 Jan 2000 01:11:07.414    04 Jan 2000 01:17:04.142      356.72826682    
04 Jan 2000 08:19:07.757    04 Jan 2000 08:29:01.250      593.49305268    
04 Jan 2000 10:04:27.998    04 Jan 2000 10:16:24.735      716.73735722    
04 Jan 2000 11:51:36.253    04 Jan 2000 12:01:59.906      623.65311653    
04 Jan 2000 13:41:51.415    04 Jan 2000 13:45:34.626      223.21103563    
04 Jan 2000 19:03:53.460    04 Jan 2000 19:10:13.813      380.35210550    
04 Jan 2000 20:48:13.339    04 Jan 2000 20:59:22.255      668.91544772    
04 Jan 2000 22:34:12.336    04 Jan 2000 22:46:00.359      708.02306539    
05 Jan 2000 00:22:11.341    05 Jan 2000 00:30:56.186      524.84503562    
05 Jan 2000 07:32:42.968    05 Jan 2000 07:40:30.733      467.76489612    
05 Jan 2000 09:17:21.866    05 Jan 2000 09:28:55.430      693.56397627    
05 Jan 2000 11:03:42.048    05 Jan 2000 11:15:10.238      688.19004740    
05 Jan 2000 12:52:19.366    05 Jan 2000 12:59:48.707      449.34055461    
05 Jan 2000 20:01:29.487    05 Jan 2000 20:11:18.199      588.71223534    
05 Jan 2000 21:46:50.109    05 Jan 2000 21:58:47.662      717.55255850    
05 Jan 2000 23:33:53.481    05 Jan 2000 23:44:23.494      630.01264092    
06 Jan 2000 01:23:57.588    06 Jan 2000 01:27:54.941      237.35237854    
06 Jan 2000 06:46:54.329    06 Jan 2000 06:51:09.419      255.08976881    
06 Jan 2000 08:30:31.612    06 Jan 2000 08:41:05.358      633.74599266    
06 Jan 2000 10:16:09.794    06 Jan 2000 10:28:05.557      715.76255331    


Number of events : 40


Observer: BA
Start Time (UTC)            Stop Time (UTC)               Duration (s)         
01 Jan 2000 12:31:27.954    01 Jan 2000 12:43:20.514      712.55983167    
01 Jan 2000 14:18:55.003    01 Jan 2000 14:29:32.416      637.41326840    
01 Jan 2000 16:06:10.970    01 Jan 2000 16:16:32.367      621.39641892    
01 Jan 2000 17:52:32.557    01 Jan 2000 18:04:05.447      692.88981319    
01 Jan 2000 19:38:44.126    01 Jan 2000 19:50:52.440      728.31390282    
01 Jan 2000 21:26:02.358    01 Jan 2000 21:35:57.176      594.81750391    
02 Jan 2000 08:16:01.858    02 Jan 2000 08:19:00.966      179.10834159    
02 Jan 2000 09:58:17.525    02 Jan 2000 10:09:17.502      659.97756935    
02 Jan 2000 11:43:57.445    02 Jan 2000 11:56:05.933      728.48810161    
02 Jan 2000 13:31:04.983    02 Jan 2000 13:42:13.546      668.56219136    
02 Jan 2000 15:18:35.579    02 Jan 2000 15:28:49.686      614.10624742    
02 Jan 2000 17:05:17.862    02 Jan 2000 17:16:17.754      659.89194004    
02 Jan 2000 18:51:25.418    02 Jan 2000 19:03:32.220      726.80223203    
02 Jan 2000 20:38:04.924    02 Jan 2000 20:49:24.687      679.76242513    
02 Jan 2000 22:27:23.518    02 Jan 2000 22:32:34.572      311.05423121    
03 Jan 2000 09:11:52.987    03 Jan 2000 09:21:11.643      558.65608645    
03 Jan 2000 10:56:41.727    03 Jan 2000 11:08:44.884      723.15730801    
03 Jan 2000 12:43:19.197    03 Jan 2000 12:54:59.759      700.56104906    
03 Jan 2000 14:30:50.706    03 Jan 2000 14:41:17.150      626.44387444    
03 Jan 2000 16:17:56.919    03 Jan 2000 16:28:27.556      630.63652891    
03 Jan 2000 18:04:11.795    03 Jan 2000 18:15:58.014      706.21870325    
03 Jan 2000 19:50:29.076    03 Jan 2000 20:02:29.721      720.64440704    
03 Jan 2000 21:38:12.666    03 Jan 2000 21:47:08.260      535.59408904    
04 Jan 2000 08:26:12.834    04 Jan 2000 08:32:16.164      363.32990698    
04 Jan 2000 10:09:43.529    04 Jan 2000 10:21:11.775      688.24642659    
04 Jan 2000 11:55:43.019    04 Jan 2000 12:07:46.487      723.46740584    
04 Jan 2000 13:43:00.866    04 Jan 2000 13:53:54.644      653.77724528    
04 Jan 2000 15:30:26.335    04 Jan 2000 15:40:41.289      614.95338595    
04 Jan 2000 17:16:58.482    04 Jan 2000 17:28:13.425      674.94328888    
04 Jan 2000 19:03:06.404    04 Jan 2000 19:15:16.719      730.31462120    
04 Jan 2000 20:50:00.939    04 Jan 2000 21:00:48.963      648.02364763    
05 Jan 2000 09:23:06.783    05 Jan 2000 09:33:18.848      612.06473988    
05 Jan 2000 11:08:20.288    05 Jan 2000 11:20:28.983      728.69529786    
05 Jan 2000 12:55:12.417    05 Jan 2000 13:06:39.109      686.69197006    
05 Jan 2000 14:42:45.373    05 Jan 2000 14:53:03.964      618.59052895    
05 Jan 2000 16:29:40.871    05 Jan 2000 16:40:23.564      642.69214303    
05 Jan 2000 18:15:51.095    05 Jan 2000 18:27:48.447      717.35247880    
05 Jan 2000 20:02:16.676    05 Jan 2000 20:14:03.352      706.67586640    
05 Jan 2000 21:50:33.601    05 Jan 2000 21:58:09.957      456.35576091    
06 Jan 2000 08:37:01.800    06 Jan 2000 08:44:51.204      469.40420496    
06 Jan 2000 10:21:13.831    06 Jan 2000 10:33:02.093      708.26148066    


Number of events : 41


Observer: CE
Start Time (UTC)            Stop Time (UTC)               Duration (s)         
01 Jan 2000 12:31:56.529    01 Jan 2000 12:41:02.767      546.23756788    
01 Jan 2000 14:22:11.885    01 Jan 2000 14:25:24.966      193.08067609    
01 Jan 2000 17:55:14.116    01 Jan 2000 18:02:57.390      463.27399561    
01 Jan 2000 19:40:14.420    01 Jan 2000 19:51:34.891      680.47048211    
01 Jan 2000 21:26:20.011    01 Jan 2000 21:38:09.512      709.50125623    
01 Jan 2000 23:14:25.974    01 Jan 2000 23:22:49.953      503.97979820    
02 Jan 2000 08:11:17.549    02 Jan 2000 08:21:12.733      595.18403972    
02 Jan 2000 09:56:33.413    02 Jan 2000 10:08:33.844      720.43085553    
02 Jan 2000 11:43:41.873    02 Jan 2000 11:54:16.525      634.65158961    
02 Jan 2000 13:32:58.362    02 Jan 2000 13:39:02.293      363.93077314    
02 Jan 2000 17:08:41.727    02 Jan 2000 17:14:03.312      321.58545804    
02 Jan 2000 18:53:21.829    02 Jan 2000 19:03:35.704      613.87548996    
02 Jan 2000 20:38:56.570    02 Jan 2000 20:50:58.155      721.58512941    
02 Jan 2000 22:26:02.846    02 Jan 2000 22:36:27.161      624.31489691    
03 Jan 2000 07:25:03.212    03 Jan 2000 07:32:38.096      454.88396587    
03 Jan 2000 09:09:27.202    03 Jan 2000 09:21:05.571      698.36916137    
03 Jan 2000 10:55:48.691    03 Jan 2000 11:07:21.211      692.52000782    
03 Jan 2000 12:44:10.963    03 Jan 2000 12:52:27.453      496.49003546    
03 Jan 2000 14:35:06.541    03 Jan 2000 14:36:24.318      77.777706273    
03 Jan 2000 16:22:27.358    03 Jan 2000 16:24:38.045      130.68653435    
03 Jan 2000 18:06:37.848    03 Jan 2000 18:15:14.731      516.88261055    
03 Jan 2000 19:51:47.860    03 Jan 2000 20:03:28.258      700.39812403    
03 Jan 2000 21:38:09.950    03 Jan 2000 21:49:42.242      692.29137580    
03 Jan 2000 23:26:51.783    03 Jan 2000 23:33:55.725      423.94203610    
04 Jan 2000 06:39:59.103    04 Jan 2000 06:42:39.248      160.14491786    
04 Jan 2000 08:22:39.150    04 Jan 2000 08:33:16.786      637.63606064    
04 Jan 2000 10:08:15.612    04 Jan 2000 10:20:14.683      719.07072474    
04 Jan 2000 11:55:46.289    04 Jan 2000 12:05:44.821      598.53163302    
04 Jan 2000 13:45:28.156    04 Jan 2000 13:50:21.262      293.10581406    
04 Jan 2000 17:20:01.606    04 Jan 2000 17:26:31.176      389.56982167    
04 Jan 2000 19:04:50.801    04 Jan 2000 19:15:38.502      647.70084493    
04 Jan 2000 20:50:38.574    04 Jan 2000 21:02:38.988      720.41473462    
04 Jan 2000 22:38:09.273    04 Jan 2000 22:47:47.102      577.82884946    
05 Jan 2000 07:36:12.127    05 Jan 2000 07:44:59.693      527.56601796    
05 Jan 2000 09:21:01.262    05 Jan 2000 09:32:54.011      712.74898838    
05 Jan 2000 11:07:43.573    05 Jan 2000 11:18:53.817      670.24419856    
05 Jan 2000 12:56:30.009    05 Jan 2000 13:03:50.595      440.58553112    
05 Jan 2000 16:33:35.747    05 Jan 2000 16:37:22.946      227.19838828    
05 Jan 2000 18:18:03.123    05 Jan 2000 18:27:27.481      564.35777801    
05 Jan 2000 20:03:23.658    05 Jan 2000 20:15:17.587      713.92929215    
05 Jan 2000 21:50:04.225    05 Jan 2000 22:01:11.282      667.05770376    
05 Jan 2000 23:39:33.775    05 Jan 2000 23:44:48.311      314.53667404    
06 Jan 2000 06:50:21.511    06 Jan 2000 06:55:54.173      332.66157447    
06 Jan 2000 08:34:04.916    06 Jan 2000 08:45:15.191      670.27474054    
06 Jan 2000 10:20:01.611    06 Jan 2000 10:31:52.659      711.04753664    


Number of events : 45


Observer: ES
Start Time (UTC)            Stop Time (UTC)               Duration (s)         
01 Jan 2000 12:31:32.378    01 Jan 2000 12:43:40.859      728.48170454    
01 Jan 2000 14:17:55.924    01 Jan 2000 14:30:07.220      731.29655016    
01 Jan 2000 16:04:37.948    01 Jan 2000 16:16:44.001      726.05310583    
01 Jan 2000 17:51:05.779    01 Jan 2000 18:03:22.817      737.03801720    
01 Jan 2000 19:37:44.506    01 Jan 2000 19:49:10.908      686.40244048    
01 Jan 2000 21:26:17.025    01 Jan 2000 21:32:40.746      383.72118927    
02 Jan 2000 10:00:28.123    02 Jan 2000 10:08:12.099      463.97593307    
02 Jan 2000 11:44:30.813    02 Jan 2000 11:56:12.549      701.73603828    
02 Jan 2000 13:30:30.032    02 Jan 2000 13:42:46.028      735.99615565    
02 Jan 2000 15:17:11.006    02 Jan 2000 15:29:16.032      725.02605636    
02 Jan 2000 17:03:45.021    02 Jan 2000 17:15:58.831      733.80966800    
02 Jan 2000 18:50:12.650    02 Jan 2000 19:02:15.026      722.37602327    
02 Jan 2000 20:37:35.032    02 Jan 2000 20:47:00.313      565.28105868    
03 Jan 2000 09:16:42.405    03 Jan 2000 09:17:32.968      50.562916312    
03 Jan 2000 10:57:46.997    03 Jan 2000 11:08:31.893      644.89564364    
03 Jan 2000 12:43:11.047    03 Jan 2000 12:55:24.849      733.80159026    
03 Jan 2000 14:29:42.230    03 Jan 2000 14:41:50.960      728.73002251    
03 Jan 2000 16:16:22.554    03 Jan 2000 16:28:30.572      728.01854729    
03 Jan 2000 18:02:48.793    03 Jan 2000 18:15:04.605      735.81197747    
03 Jan 2000 19:49:36.811    03 Jan 2000 20:00:36.419      659.60740030    
03 Jan 2000 21:39:17.670    03 Jan 2000 21:42:58.449      220.77855128    
04 Jan 2000 10:11:29.093    04 Jan 2000 10:20:28.002      538.90860567    
04 Jan 2000 11:56:03.116    04 Jan 2000 12:07:59.879      716.76296907    
04 Jan 2000 13:42:14.579    04 Jan 2000 13:54:28.881      734.30167587    
04 Jan 2000 15:28:56.981    04 Jan 2000 15:41:01.839      724.85853030    
04 Jan 2000 17:15:27.926    04 Jan 2000 17:27:43.900      735.97370682    
04 Jan 2000 19:01:59.133    04 Jan 2000 19:13:48.721      709.58782348    
04 Jan 2000 20:49:46.364    04 Jan 2000 20:58:05.760      499.39584285    
05 Jan 2000 09:26:03.829    05 Jan 2000 09:31:30.393      326.56424849    
05 Jan 2000 11:09:10.595    05 Jan 2000 11:20:25.764      675.16862524    
05 Jan 2000 12:54:51.964    05 Jan 2000 13:07:08.087      736.12318077    
05 Jan 2000 14:41:28.752    05 Jan 2000 14:53:35.333      726.58099411    
05 Jan 2000 16:28:06.502    05 Jan 2000 16:40:17.062      730.55954104    
05 Jan 2000 18:14:32.396    05 Jan 2000 18:26:44.301      731.90444297    
05 Jan 2000 20:01:33.167    05 Jan 2000 20:11:57.202      624.03511821    
06 Jan 2000 10:22:39.521    06 Jan 2000 10:32:34.241      594.71997534    


Number of events : 36


Observer: GO
Start Time (UTC)            Stop Time (UTC)               Duration (s)         
01 Jan 2000 12:28:49.524    01 Jan 2000 12:40:57.009      727.48572574    
01 Jan 2000 14:15:22.692    01 Jan 2000 14:27:18.265      715.57253598    
01 Jan 2000 16:02:27.035    01 Jan 2000 16:13:52.535      685.50016244    
01 Jan 2000 17:49:06.414    01 Jan 2000 18:00:55.984      709.57004232    
01 Jan 2000 19:35:26.099    01 Jan 2000 19:47:38.767      732.66775984    
01 Jan 2000 21:22:27.533    01 Jan 2000 21:32:57.511      629.97773490    
02 Jan 2000 09:57:58.113    02 Jan 2000 10:05:04.332      426.21873901    
02 Jan 2000 11:41:48.504    02 Jan 2000 11:53:27.128      698.62397101    
02 Jan 2000 13:27:50.783    02 Jan 2000 13:40:00.166      729.38301855    
02 Jan 2000 15:14:50.620    02 Jan 2000 15:26:23.521      692.90198466    
02 Jan 2000 17:01:43.896    02 Jan 2000 17:13:17.884      693.98757900    
02 Jan 2000 18:48:06.585    02 Jan 2000 19:00:17.337      730.75160366    
02 Jan 2000 20:34:40.724    02 Jan 2000 20:46:17.588      696.86381912    
02 Jan 2000 22:23:09.389    02 Jan 2000 22:30:02.457      413.06804968    
03 Jan 2000 10:55:07.232    03 Jan 2000 11:05:41.604      634.37240969    
03 Jan 2000 12:40:28.700    03 Jan 2000 12:52:40.838      732.13872209    
03 Jan 2000 14:27:12.592    03 Jan 2000 14:39:00.575      707.98365074    
03 Jan 2000 16:14:15.399    03 Jan 2000 16:25:41.118      685.71865477    
03 Jan 2000 18:00:48.593    03 Jan 2000 18:12:45.811      717.21804638    
03 Jan 2000 19:47:10.121    03 Jan 2000 19:59:17.570      727.44918431    
03 Jan 2000 21:34:30.469    03 Jan 2000 21:44:13.294      582.82462740    
04 Jan 2000 10:08:54.519    04 Jan 2000 10:17:27.883      513.36417667    
04 Jan 2000 11:53:20.298    04 Jan 2000 12:05:15.524      715.22506628    
04 Jan 2000 13:39:37.686    04 Jan 2000 13:51:41.704      724.01730667    
04 Jan 2000 15:26:40.969    04 Jan 2000 15:38:09.285      688.31577029    
04 Jan 2000 17:13:28.183    04 Jan 2000 17:25:08.651      700.46852353    
04 Jan 2000 18:59:48.406    04 Jan 2000 19:12:01.967      733.56079054    
04 Jan 2000 20:46:32.733    04 Jan 2000 20:57:44.862      672.12829082    
04 Jan 2000 22:36:00.436    04 Jan 2000 22:40:32.969      272.53227661    
05 Jan 2000 09:23:48.451    05 Jan 2000 09:28:03.269      254.81804836    
05 Jan 2000 11:06:29.439    05 Jan 2000 11:17:38.143      668.70388461    
05 Jan 2000 12:52:10.660    05 Jan 2000 13:04:23.466      732.80592451    
05 Jan 2000 14:39:03.127    05 Jan 2000 14:50:43.733      700.60648390    
05 Jan 2000 16:26:02.521    05 Jan 2000 16:37:30.736      688.21440164    
05 Jan 2000 18:12:30.267    05 Jan 2000 18:24:34.485      724.21886997    
05 Jan 2000 19:58:55.927    05 Jan 2000 20:10:53.212      717.28502449    
05 Jan 2000 21:46:41.202    05 Jan 2000 21:55:21.658      520.45566940    
06 Jan 2000 10:20:02.119    06 Jan 2000 10:29:39.387      577.26747809    


Number of events : 38


Observer: MA
Start Time (UTC)            Stop Time (UTC)               Duration (s)         
01 Jan 2000 12:30:04.477    01 Jan 2000 12:39:25.814      561.33636259    
01 Jan 2000 14:21:04.820    01 Jan 2000 14:22:51.992      107.17260945    
01 Jan 2000 17:55:05.149    01 Jan 2000 17:59:58.738      293.58974921    
01 Jan 2000 19:39:22.359    01 Jan 2000 19:49:44.352      621.99372979    
01 Jan 2000 21:24:58.334    01 Jan 2000 21:36:58.968      720.63366543    
01 Jan 2000 23:12:14.611    01 Jan 2000 23:22:21.203      606.59230112    
02 Jan 2000 08:09:51.003    02 Jan 2000 08:19:16.901      565.89855276    
02 Jan 2000 09:54:56.835    02 Jan 2000 10:06:53.576      716.74064440    
02 Jan 2000 11:41:53.164    02 Jan 2000 11:52:41.485      648.32192855    
02 Jan 2000 13:31:10.896    02 Jan 2000 13:37:13.111      362.21487110    
02 Jan 2000 18:52:42.222    02 Jan 2000 19:01:23.815      521.59296930    
02 Jan 2000 20:37:47.804    02 Jan 2000 20:49:32.586      704.78217319    
02 Jan 2000 22:24:16.795    02 Jan 2000 22:35:38.588      681.79267872    
03 Jan 2000 00:13:12.959    03 Jan 2000 00:19:46.927      393.96855404    
03 Jan 2000 07:23:41.320    03 Jan 2000 07:30:31.898      410.57788578    
03 Jan 2000 09:07:55.091    03 Jan 2000 09:19:20.158      685.06727528    
03 Jan 2000 10:54:04.830    03 Jan 2000 11:05:45.439      700.60868132    
03 Jan 2000 12:42:18.537    03 Jan 2000 12:50:48.368      509.83086533    
03 Jan 2000 18:06:15.824    03 Jan 2000 18:12:34.408      378.58412073    
03 Jan 2000 19:50:50.652    03 Jan 2000 20:01:46.063      655.41117011    
03 Jan 2000 21:36:41.631    03 Jan 2000 21:48:38.294      716.66315632    
03 Jan 2000 23:24:23.602    03 Jan 2000 23:33:40.308      556.70598827    
04 Jan 2000 08:21:10.938    04 Jan 2000 08:31:24.602      613.66380458    
04 Jan 2000 10:06:36.839    04 Jan 2000 10:18:36.202      719.36363610    
04 Jan 2000 11:53:55.771    04 Jan 2000 12:04:09.313      613.54168915    
04 Jan 2000 13:43:48.795    04 Jan 2000 13:48:22.141      273.34582518    
04 Jan 2000 17:20:25.825    04 Jan 2000 17:22:52.849      147.02377600    
04 Jan 2000 19:04:05.284    04 Jan 2000 19:13:36.821      571.53733573    
04 Jan 2000 20:49:24.233    04 Jan 2000 21:01:20.321      716.08750377    
04 Jan 2000 22:36:13.156    04 Jan 2000 22:47:06.505      653.34902799    
05 Jan 2000 00:26:00.049    05 Jan 2000 00:30:36.937      276.88788471    
05 Jan 2000 07:34:47.782    05 Jan 2000 07:42:58.728      490.94551558    
05 Jan 2000 09:19:27.211    05 Jan 2000 09:31:11.117      703.90588859    
05 Jan 2000 11:05:57.441    05 Jan 2000 11:17:18.647      681.20572222    
05 Jan 2000 12:54:38.491    05 Jan 2000 13:02:08.164      449.67242297    
05 Jan 2000 18:17:32.028    05 Jan 2000 18:25:01.309      449.28111455    
05 Jan 2000 20:02:21.319    05 Jan 2000 20:13:43.164      681.84405769    
05 Jan 2000 21:48:28.521    05 Jan 2000 22:00:14.043      705.52239310    
05 Jan 2000 23:36:40.154    05 Jan 2000 23:44:54.246      494.09173921    
06 Jan 2000 06:49:06.323    06 Jan 2000 06:53:37.532      271.20833740    
06 Jan 2000 08:32:35.005    06 Jan 2000 08:43:26.269      651.26401648    
06 Jan 2000 10:18:20.563    06 Jan 2000 10:30:15.621      715.05798121    


Number of events : 42


Observer: MG
Start Time (UTC)            Stop Time (UTC)               Duration (s)         
01 Jan 2000 12:30:35.730    01 Jan 2000 12:42:39.529      723.79980634    
01 Jan 2000 14:16:54.926    01 Jan 2000 14:29:06.482      731.55649801    
01 Jan 2000 16:03:39.498    01 Jan 2000 16:15:41.633      722.13462509    
01 Jan 2000 17:50:09.585    01 Jan 2000 18:02:25.270      735.68522204    
01 Jan 2000 19:36:41.852    01 Jan 2000 19:48:27.782      705.92928117    
01 Jan 2000 21:24:37.973    01 Jan 2000 21:32:36.342      478.36885785    
02 Jan 2000 10:00:00.029    02 Jan 2000 10:06:43.307      403.27754285    
02 Jan 2000 11:43:38.307    02 Jan 2000 11:55:08.513      690.20656137    
02 Jan 2000 13:29:29.824    02 Jan 2000 13:41:45.791      735.96678923    
02 Jan 2000 15:16:11.005    02 Jan 2000 15:28:14.000      722.99480826    
02 Jan 2000 17:02:48.543    02 Jan 2000 17:14:58.175      729.63204437    
02 Jan 2000 18:49:14.184    02 Jan 2000 19:01:24.808      730.62375187    
02 Jan 2000 20:36:19.301    02 Jan 2000 20:46:32.673      613.37215992    
03 Jan 2000 10:57:00.455    03 Jan 2000 11:07:22.602      622.14723680    
03 Jan 2000 12:42:12.989    03 Jan 2000 12:54:24.159      731.16963159    
03 Jan 2000 14:28:41.302    03 Jan 2000 14:40:49.823      728.52076777    
03 Jan 2000 16:15:24.827    03 Jan 2000 16:27:28.409      723.58123009    
03 Jan 2000 18:01:52.282    03 Jan 2000 18:14:08.983      736.70180492    
03 Jan 2000 19:48:31.257    03 Jan 2000 19:59:57.211      685.95455327    
03 Jan 2000 21:37:07.180    03 Jan 2000 21:43:24.875      377.69547198    
04 Jan 2000 10:10:52.556    04 Jan 2000 10:19:08.298      495.74143229    
04 Jan 2000 11:55:08.560    04 Jan 2000 12:06:57.311      708.75134643    
04 Jan 2000 13:41:13.848    04 Jan 2000 13:53:28.507      734.65883421    
04 Jan 2000 15:27:57.642    04 Jan 2000 15:39:59.546      721.90436017    
04 Jan 2000 17:14:31.726    04 Jan 2000 17:26:44.445      732.71923279    
04 Jan 2000 19:00:59.105    04 Jan 2000 19:13:01.469      722.36320776    
04 Jan 2000 20:48:22.996    04 Jan 2000 20:57:45.920      562.92332970    
05 Jan 2000 09:26:03.480    05 Jan 2000 09:29:32.623      209.14240218    
05 Jan 2000 11:08:21.071    05 Jan 2000 11:19:19.251      658.18053373    
05 Jan 2000 12:53:52.769    05 Jan 2000 13:06:07.749      734.98034442    
05 Jan 2000 14:40:28.127    05 Jan 2000 14:52:33.768      725.64141807    
05 Jan 2000 16:27:09.424    05 Jan 2000 16:39:15.387      725.96376438    
05 Jan 2000 18:13:35.236    05 Jan 2000 18:25:50.923      735.68702970    
05 Jan 2000 20:00:23.818    05 Jan 2000 20:11:22.577      658.75954921    
05 Jan 2000 21:50:11.443    05 Jan 2000 21:53:39.408      207.96497162    
06 Jan 2000 10:21:57.635    06 Jan 2000 10:31:20.231      562.59608689    


Number of events : 36


Observer: MS
Start Time (UTC)            Stop Time (UTC)               Duration (s)         
01 Jan 2000 12:28:14.896    01 Jan 2000 12:39:36.423      681.52726293    
01 Jan 2000 14:14:00.086    01 Jan 2000 14:26:16.519      736.43298629    
01 Jan 2000 16:00:37.289    01 Jan 2000 16:12:44.341      727.05159826    
01 Jan 2000 17:47:13.646    01 Jan 2000 17:59:25.850      732.20399092    
01 Jan 2000 19:33:39.958    01 Jan 2000 19:45:49.286      729.32739656    
01 Jan 2000 21:20:46.749    01 Jan 2000 21:30:53.728      606.97901981    
02 Jan 2000 11:41:40.861    02 Jan 2000 11:51:47.679      606.81764565    
02 Jan 2000 13:26:45.533    02 Jan 2000 13:38:54.201      728.66841929    
02 Jan 2000 15:13:08.893    02 Jan 2000 15:25:20.658      731.76578701    
02 Jan 2000 16:59:50.094    02 Jan 2000 17:11:57.345      727.25092359    
02 Jan 2000 18:46:17.661    02 Jan 2000 18:58:34.737      737.07577663    
02 Jan 2000 20:32:57.827    02 Jan 2000 20:44:19.830      682.00283807    
02 Jan 2000 22:21:38.720    02 Jan 2000 22:27:40.755      362.03455970    
03 Jan 2000 10:55:39.544    03 Jan 2000 11:03:27.469      467.92530972    
03 Jan 2000 12:39:43.768    03 Jan 2000 12:51:26.065      702.29730215    
03 Jan 2000 14:25:43.193    03 Jan 2000 14:37:59.376      736.18356788    
03 Jan 2000 16:12:23.498    03 Jan 2000 16:24:29.526      726.02754899    
03 Jan 2000 17:58:56.864    03 Jan 2000 18:11:11.522      734.65812856    
03 Jan 2000 19:45:25.095    03 Jan 2000 19:57:25.381      720.28661189    
03 Jan 2000 21:32:51.075    03 Jan 2000 21:42:06.026      554.95023656    
04 Jan 2000 10:11:37.055    04 Jan 2000 10:13:05.536      88.480864058    
04 Jan 2000 11:52:59.584    04 Jan 2000 12:03:45.814      646.22980049    
04 Jan 2000 13:38:24.241    04 Jan 2000 13:50:38.166      733.92550297    
04 Jan 2000 15:24:55.069    04 Jan 2000 15:37:04.436      729.36715255    
04 Jan 2000 17:11:34.570    04 Jan 2000 17:23:43.772      729.20212032    
04 Jan 2000 18:58:00.778    04 Jan 2000 19:10:16.095      735.31654476    
04 Jan 2000 20:44:50.728    04 Jan 2000 20:55:44.549      653.82132980    
04 Jan 2000 22:34:51.914    04 Jan 2000 22:37:45.976      174.06242152    
05 Jan 2000 11:06:41.033    05 Jan 2000 11:15:42.728      541.69528903    
05 Jan 2000 12:51:16.181    05 Jan 2000 13:03:13.294      717.11273269    
05 Jan 2000 14:37:27.672    05 Jan 2000 14:49:42.267      734.59503263    
05 Jan 2000 16:24:09.311    05 Jan 2000 16:36:15.292      725.98068179    
05 Jan 2000 18:10:39.757    05 Jan 2000 18:22:56.275      736.51827550    
05 Jan 2000 19:57:11.911    05 Jan 2000 20:08:58.474      706.56303006    
05 Jan 2000 21:45:04.103    05 Jan 2000 21:53:09.720      485.61789254    
06 Jan 2000 10:21:13.885    06 Jan 2000 10:26:47.334      333.44904789    


Number of events : 36


Observer: MT
Start Time (UTC)            Stop Time (UTC)               Duration (s)         
01 Jan 2000 12:26:59.435    01 Jan 2000 12:38:58.240      718.80499116    
01 Jan 2000 14:13:23.563    01 Jan 2000 14:25:21.051      717.48764359    
01 Jan 2000 16:00:35.219    01 Jan 2000 16:11:46.537      671.31866090    
01 Jan 2000 17:47:27.529    01 Jan 2000 17:58:50.346      682.81709198    
01 Jan 2000 19:33:45.892    01 Jan 2000 19:45:55.133      729.24077116    
01 Jan 2000 21:20:21.276    01 Jan 2000 21:31:53.428      692.15210408    
01 Jan 2000 23:09:04.307    01 Jan 2000 23:15:28.065      383.75827133    
02 Jan 2000 09:57:04.775    02 Jan 2000 10:02:04.243      299.46803249    
02 Jan 2000 11:40:05.932    02 Jan 2000 11:51:22.377      676.44493345    
02 Jan 2000 13:25:53.564    02 Jan 2000 13:38:04.193      730.62869960    
02 Jan 2000 15:12:53.942    02 Jan 2000 15:24:21.394      687.45219181    
02 Jan 2000 17:00:00.602    02 Jan 2000 17:11:09.562      668.95978306    
02 Jan 2000 18:46:29.296    02 Jan 2000 18:58:22.431      713.13536289    
02 Jan 2000 20:32:49.230    02 Jan 2000 20:44:54.880      725.65029482    
02 Jan 2000 22:20:16.346    02 Jan 2000 22:29:45.349      569.00318821    
03 Jan 2000 10:53:35.141    03 Jan 2000 11:03:25.860      590.71916440    
03 Jan 2000 12:38:35.910    03 Jan 2000 12:50:43.599      727.68901748    
03 Jan 2000 14:25:13.550    03 Jan 2000 14:37:02.133      708.58314646    
03 Jan 2000 16:12:26.244    03 Jan 2000 16:23:33.785      667.54128216    
03 Jan 2000 17:59:10.886    03 Jan 2000 18:10:42.687      691.80088767    
03 Jan 2000 19:45:27.393    03 Jan 2000 19:57:39.860      732.46693206    
03 Jan 2000 21:32:14.449    03 Jan 2000 21:43:19.777      665.32830005    
03 Jan 2000 23:22:08.493    03 Jan 2000 23:25:47.093      218.59980474    
04 Jan 2000 10:07:41.322    04 Jan 2000 10:14:50.084      428.76215712    
04 Jan 2000 11:51:34.061    04 Jan 2000 12:03:13.959      699.89717498    
04 Jan 2000 13:37:39.263    04 Jan 2000 13:49:45.450      726.18701868    
04 Jan 2000 15:24:46.240    04 Jan 2000 15:36:05.335      679.09549082    
04 Jan 2000 17:11:47.143    04 Jan 2000 17:23:01.045      673.90278205    
04 Jan 2000 18:58:10.236    04 Jan 2000 19:10:11.808      721.57265588    
04 Jan 2000 20:44:35.508    04 Jan 2000 20:56:29.958      714.44947830    
04 Jan 2000 22:32:30.099    04 Jan 2000 22:40:51.688      501.58924588    
05 Jan 2000 11:04:52.108    05 Jan 2000 11:15:28.165      636.05736931    
05 Jan 2000 12:50:15.593    05 Jan 2000 13:02:27.139      731.54633443    
05 Jan 2000 14:37:04.789    05 Jan 2000 14:48:43.750      698.96114009    
05 Jan 2000 16:24:16.086    05 Jan 2000 16:35:22.563      666.47663073    
05 Jan 2000 18:10:53.139    05 Jan 2000 18:22:34.642      701.50351622    
05 Jan 2000 19:57:09.835    05 Jan 2000 20:09:21.930      732.09432199    
05 Jan 2000 21:44:12.166    05 Jan 2000 21:54:41.309      629.14332262    
06 Jan 2000 10:18:38.455    06 Jan 2000 10:27:13.843      515.38839686    


Number of events : 39


Observer: PA
Start Time (UTC)            Stop Time (UTC)               Duration (s)         
01 Jan 2000 12:28:31.486    01 Jan 2000 12:38:14.370      582.88374528    
01 Jan 2000 14:19:28.428    01 Jan 2000 14:21:31.793      123.36511931    
01 Jan 2000 19:38:44.358    01 Jan 2000 19:48:03.296      558.93778283    
01 Jan 2000 21:23:57.629    01 Jan 2000 21:35:51.663      714.03475797    
01 Jan 2000 23:10:43.766    01 Jan 2000 23:21:40.988      657.22219648    
02 Jan 2000 01:00:16.814    02 Jan 2000 01:05:26.633      309.81873921    
02 Jan 2000 08:08:46.118    02 Jan 2000 08:17:40.275      534.15748636    
02 Jan 2000 09:53:42.000    02 Jan 2000 10:05:33.072      711.07155299    
02 Jan 2000 11:40:25.620    02 Jan 2000 11:51:29.063      663.44273299    
02 Jan 2000 13:29:32.402    02 Jan 2000 13:35:59.595      387.19273458    
02 Jan 2000 18:52:17.274    02 Jan 2000 18:59:21.802      424.52789090    
02 Jan 2000 20:36:56.267    02 Jan 2000 20:48:13.222      676.95508866    
02 Jan 2000 22:23:00.332    02 Jan 2000 22:34:46.992      706.66017862    
03 Jan 2000 00:11:07.031    03 Jan 2000 00:19:33.270      506.23887805    
03 Jan 2000 07:22:42.701    03 Jan 2000 07:28:43.810      361.10853343    
03 Jan 2000 09:06:44.508    03 Jan 2000 09:17:54.173      669.66456261    
03 Jan 2000 10:52:42.794    03 Jan 2000 11:04:30.635      707.84072065    
03 Jan 2000 12:40:43.348    03 Jan 2000 12:49:36.817      533.46897672    
03 Jan 2000 18:06:23.029    03 Jan 2000 18:09:51.215      208.18555701    
03 Jan 2000 19:50:08.170    03 Jan 2000 20:00:12.491      604.32155365    
03 Jan 2000 21:35:36.453    03 Jan 2000 21:47:35.991      719.53777203    
03 Jan 2000 23:22:44.550    03 Jan 2000 23:33:06.163      621.61312276    
04 Jan 2000 01:13:34.380    04 Jan 2000 01:15:49.793      135.41307278    
04 Jan 2000 08:20:04.230    04 Jan 2000 08:29:51.705      587.47475651    
04 Jan 2000 10:05:19.896    04 Jan 2000 10:17:17.750      717.85428375    
04 Jan 2000 11:52:25.720    04 Jan 2000 12:02:57.520      631.80040122    
04 Jan 2000 13:42:10.188    04 Jan 2000 13:47:06.513      296.32539087    
04 Jan 2000 19:03:33.645    04 Jan 2000 19:11:45.253      491.60738052    
04 Jan 2000 20:48:28.648    04 Jan 2000 21:00:06.598      697.95013263    
04 Jan 2000 22:34:50.711    04 Jan 2000 22:46:19.837      689.12587861    
05 Jan 2000 00:23:30.805    05 Jan 2000 00:30:43.033      432.22739274    
05 Jan 2000 07:33:45.612    05 Jan 2000 07:41:16.676      451.06430682    
05 Jan 2000 09:18:14.778    05 Jan 2000 09:29:47.766      692.98809677    
05 Jan 2000 11:04:32.953    05 Jan 2000 11:16:05.078      692.12480056    
05 Jan 2000 12:53:01.455    05 Jan 2000 13:00:56.073      474.61881627    
05 Jan 2000 18:17:19.325    05 Jan 2000 18:22:42.174      322.84970825    
05 Jan 2000 20:01:34.680    05 Jan 2000 20:12:16.340      641.65919374    
05 Jan 2000 21:47:18.531    05 Jan 2000 21:59:16.592      718.06139356    
05 Jan 2000 23:34:51.059    05 Jan 2000 23:44:27.537      576.47757686    
06 Jan 2000 06:48:20.868    06 Jan 2000 06:51:33.041      192.17287197    
06 Jan 2000 08:31:26.565    06 Jan 2000 08:41:56.687      630.12268483    
06 Jan 2000 10:17:01.392    06 Jan 2000 10:28:58.968      717.57668392    


Number of events : 42


Observer: PB
Start Time (UTC)            Stop Time (UTC)               Duration (s)         
01 Jan 2000 12:32:49.332    01 Jan 2000 12:42:56.720      607.38877606    
01 Jan 2000 14:21:32.534    01 Jan 2000 14:28:39.615      427.08090555    
01 Jan 2000 16:09:05.231    01 Jan 2000 16:16:11.743      426.51239564    
01 Jan 2000 17:54:48.323    01 Jan 2000 18:04:55.381      607.05744111    
01 Jan 2000 19:40:28.535    01 Jan 2000 19:52:29.187      720.65246059    
01 Jan 2000 21:27:14.252    01 Jan 2000 21:38:15.974      661.72122974    
01 Jan 2000 23:17:13.462    01 Jan 2000 23:21:12.786      239.32459237    
02 Jan 2000 08:13:01.589    02 Jan 2000 08:22:21.437      559.84797328    
02 Jan 2000 09:57:57.944    02 Jan 2000 10:09:58.291      720.34679437    
02 Jan 2000 11:44:48.482    02 Jan 2000 11:55:57.843      669.36079835    
02 Jan 2000 13:33:13.029    02 Jan 2000 13:41:29.560      496.53137092    
02 Jan 2000 15:21:35.024    02 Jan 2000 15:28:05.182      390.15845507    
02 Jan 2000 17:07:49.771    02 Jan 2000 17:16:40.954      531.18297933    
02 Jan 2000 18:53:21.419    02 Jan 2000 19:04:52.379      690.96002866    
02 Jan 2000 20:39:32.429    02 Jan 2000 20:51:24.145      711.71552549    
02 Jan 2000 22:27:38.605    02 Jan 2000 22:35:55.552      496.94753021    
03 Jan 2000 07:27:09.041    03 Jan 2000 07:33:27.490      378.44860264    
03 Jan 2000 09:10:57.823    03 Jan 2000 09:22:24.972      687.14936298    
03 Jan 2000 10:57:04.162    03 Jan 2000 11:08:54.084      709.92157337    
03 Jan 2000 12:44:54.906    03 Jan 2000 12:54:29.262      574.35583407    
03 Jan 2000 14:33:38.602    03 Jan 2000 14:40:23.526      404.92325787    
03 Jan 2000 16:20:45.150    03 Jan 2000 16:28:20.418      455.26856133    
03 Jan 2000 18:06:20.935    03 Jan 2000 18:16:58.362      637.42670218    
03 Jan 2000 19:52:08.445    03 Jan 2000 20:04:13.427      724.98214000    
03 Jan 2000 21:39:14.396    03 Jan 2000 21:49:38.906      624.50997984    
04 Jan 2000 08:24:17.926    04 Jan 2000 08:34:29.764      611.83831251    
04 Jan 2000 10:09:37.532    04 Jan 2000 10:21:41.464      723.93178014    
04 Jan 2000 11:56:47.481    04 Jan 2000 12:07:31.170      643.68923485    
04 Jan 2000 13:45:22.949    04 Jan 2000 13:53:05.793      462.84405836    
04 Jan 2000 15:33:25.229    04 Jan 2000 15:40:06.094      400.86474979    
04 Jan 2000 17:19:22.908    04 Jan 2000 17:28:49.286      566.37834358    
04 Jan 2000 19:04:57.049    04 Jan 2000 19:16:44.645      707.59602177    
04 Jan 2000 20:51:22.172    04 Jan 2000 21:02:56.377      694.20568629    
04 Jan 2000 22:40:07.301    04 Jan 2000 22:46:55.604      408.30336458    
05 Jan 2000 07:38:05.401    05 Jan 2000 07:46:00.494      475.09238919    
05 Jan 2000 09:22:29.016    05 Jan 2000 09:34:15.727      706.71136931    
05 Jan 2000 11:08:55.474    05 Jan 2000 11:20:30.117      694.64320529    
05 Jan 2000 12:57:02.719    05 Jan 2000 13:06:02.220      539.50059948    
05 Jan 2000 14:45:40.651    05 Jan 2000 14:52:12.427      391.77617412    
05 Jan 2000 16:32:21.980    05 Jan 2000 16:40:30.306      488.32564006    
05 Jan 2000 18:17:54.061    05 Jan 2000 18:28:58.240      664.17924359    
05 Jan 2000 20:03:50.902    05 Jan 2000 20:15:53.998      723.09594713    
05 Jan 2000 21:51:20.846    05 Jan 2000 22:00:56.769      575.92277073    
06 Jan 2000 06:53:07.506    06 Jan 2000 06:56:04.775      177.26930509    
06 Jan 2000 08:35:39.589    06 Jan 2000 08:46:31.407      651.81815405    
06 Jan 2000 10:21:20.798    06 Jan 2000 10:33:21.985      721.18714135    


Number of events : 46


Observer: PE
Start Time (UTC)            Stop Time (UTC)               Duration (s)         
01 Jan 2000 12:32:44.114    01 Jan 2000 12:43:12.245      628.13063826    
01 Jan 2000 14:21:11.918    01 Jan 2000 14:29:04.196      472.27806126    
01 Jan 2000 16:08:40.589    01 Jan 2000 16:16:32.418      471.82849715    
01 Jan 2000 17:54:32.731    01 Jan 2000 18:05:00.646      627.91537213    
01 Jan 2000 19:40:19.819    01 Jan 2000 19:52:24.041      724.22211251    
01 Jan 2000 21:27:13.119    01 Jan 2000 21:38:01.851      648.73209185    
01 Jan 2000 23:18:06.105    01 Jan 2000 23:20:05.400      119.29492475    
02 Jan 2000 08:13:21.620    02 Jan 2000 08:22:16.660      535.03930082    
02 Jan 2000 09:58:06.571    02 Jan 2000 10:10:04.267      717.69539744    
02 Jan 2000 11:44:48.051    02 Jan 2000 11:56:10.332      682.28069722    
02 Jan 2000 13:32:59.053    02 Jan 2000 13:41:50.422      531.36888093    
02 Jan 2000 15:21:08.886    02 Jan 2000 15:28:30.578      441.69183641    
02 Jan 2000 17:07:30.600    02 Jan 2000 17:16:52.050      561.44984707    
02 Jan 2000 18:53:10.102    02 Jan 2000 19:04:50.967      700.86552745    
02 Jan 2000 20:39:27.699    02 Jan 2000 20:51:13.974      706.27587391    
02 Jan 2000 22:27:47.506    02 Jan 2000 22:35:31.423      463.91771100    
03 Jan 2000 07:27:43.572    03 Jan 2000 07:33:07.910      324.33837071    
03 Jan 2000 09:11:10.100    03 Jan 2000 09:22:27.776      677.67572823    
03 Jan 2000 10:57:07.715    03 Jan 2000 11:09:03.894      716.17848629    
03 Jan 2000 12:44:47.197    03 Jan 2000 12:54:46.328      599.13112937    
03 Jan 2000 14:33:15.415    03 Jan 2000 14:40:49.251      453.83605678    
03 Jan 2000 16:20:22.073    03 Jan 2000 16:28:38.160      496.08660273    
03 Jan 2000 18:06:06.772    03 Jan 2000 18:17:01.344      654.57230170    
03 Jan 2000 19:52:00.900    03 Jan 2000 20:04:06.716      725.81572750    
03 Jan 2000 21:39:15.428    03 Jan 2000 21:49:22.553      607.12468702    
04 Jan 2000 08:24:34.927    04 Jan 2000 08:34:28.033      593.10607592    
04 Jan 2000 10:09:44.612    04 Jan 2000 10:21:48.676      724.06371214    
04 Jan 2000 11:56:45.009    04 Jan 2000 12:07:44.969      659.96038006    
04 Jan 2000 13:45:05.934    04 Jan 2000 13:53:28.427      502.49311344    
04 Jan 2000 15:32:59.302    04 Jan 2000 15:40:29.802      450.49954519    
04 Jan 2000 17:19:05.420    04 Jan 2000 17:28:57.621      592.20160078    
04 Jan 2000 19:04:46.918    04 Jan 2000 19:16:41.488      714.56989262    
04 Jan 2000 20:51:18.917    04 Jan 2000 21:02:44.536      685.61830422    
04 Jan 2000 22:40:23.639    04 Jan 2000 22:46:24.202      360.56232713    
05 Jan 2000 07:38:31.023    05 Jan 2000 07:45:50.009      438.98641361    
05 Jan 2000 09:22:39.582    05 Jan 2000 09:34:20.062      700.47979258    
05 Jan 2000 11:08:57.308    05 Jan 2000 11:20:41.107      703.79840294    
05 Jan 2000 12:56:52.300    05 Jan 2000 13:06:20.943      568.64303659    
05 Jan 2000 14:45:15.567    05 Jan 2000 14:52:38.579      443.01172119    
05 Jan 2000 16:32:00.657    05 Jan 2000 16:40:45.003      524.34663131    
05 Jan 2000 18:17:41.229    05 Jan 2000 18:28:59.138      677.90952109    
05 Jan 2000 20:03:44.572    05 Jan 2000 20:15:45.743      721.17080921    
05 Jan 2000 21:51:24.684    05 Jan 2000 22:00:37.611      552.92731107    
06 Jan 2000 08:35:54.234    06 Jan 2000 08:46:31.984      637.75031646    
06 Jan 2000 10:21:26.319    06 Jan 2000 10:33:30.378      724.05898254    


Number of events : 45


Observer: PI
Start Time (UTC)            Stop Time (UTC)               Duration (s)         
01 Jan 2000 12:30:14.937    01 Jan 2000 12:40:33.850      618.91219507    
01 Jan 2000 14:19:24.244    01 Jan 2000 14:25:39.472      375.22783958    
01 Jan 2000 16:08:15.179    01 Jan 2000 16:12:06.091      230.91202453    
01 Jan 2000 17:53:44.616    01 Jan 2000 18:01:38.412      473.79528014    
01 Jan 2000 19:38:56.182    01 Jan 2000 19:50:12.573      676.39133128    
01 Jan 2000 21:24:58.787    01 Jan 2000 21:36:53.573      714.78580908    
01 Jan 2000 23:12:53.870    01 Jan 2000 23:21:39.069      525.19928272    
02 Jan 2000 08:11:03.242    02 Jan 2000 08:19:28.441      505.19916803    
02 Jan 2000 09:55:41.692    02 Jan 2000 10:07:32.032      710.34031607    
02 Jan 2000 11:42:16.972    02 Jan 2000 11:53:38.397      681.42561422    
02 Jan 2000 13:30:45.574    02 Jan 2000 13:38:51.364      485.79041599    
02 Jan 2000 15:20:19.341    02 Jan 2000 15:24:16.311      236.97014772    
02 Jan 2000 17:06:56.113    02 Jan 2000 17:12:58.507      362.39372687    
02 Jan 2000 18:52:01.582    02 Jan 2000 19:02:12.190      610.60862916    
02 Jan 2000 20:37:37.656    02 Jan 2000 20:49:39.521      721.86470727    
02 Jan 2000 22:24:36.065    02 Jan 2000 22:35:14.481      638.41597619    
03 Jan 2000 00:15:38.249    03 Jan 2000 00:17:24.773      106.52433168    
03 Jan 2000 07:25:30.045    03 Jan 2000 07:30:06.170      276.12487996    
03 Jan 2000 09:08:48.348    03 Jan 2000 09:19:50.664      662.31551558    
03 Jan 2000 10:54:38.242    03 Jan 2000 11:06:34.148      715.90553338    
03 Jan 2000 12:42:20.817    03 Jan 2000 12:52:03.201      582.38372442    
03 Jan 2000 14:31:44.230    03 Jan 2000 14:37:09.549      325.31853350    
03 Jan 2000 16:19:57.269    03 Jan 2000 16:24:18.018      260.74841784    
03 Jan 2000 18:05:12.379    03 Jan 2000 18:13:53.063      520.68349676    
03 Jan 2000 19:50:29.800    03 Jan 2000 20:02:06.958      697.15796578    
03 Jan 2000 21:36:47.265    03 Jan 2000 21:48:27.418      700.15324883    
03 Jan 2000 23:25:16.631    03 Jan 2000 23:32:45.843      449.21203740    
04 Jan 2000 08:22:15.626    04 Jan 2000 08:31:43.796      568.16993484    
04 Jan 2000 10:07:18.219    04 Jan 2000 10:19:17.840      719.62124290    
04 Jan 2000 11:54:14.194    04 Jan 2000 12:05:10.732      656.53749924    
04 Jan 2000 13:43:02.259    04 Jan 2000 13:50:19.135      436.87603039    
04 Jan 2000 15:32:24.673    04 Jan 2000 15:36:05.494      220.82141371    
04 Jan 2000 17:18:24.899    04 Jan 2000 17:25:18.120      413.22139733    
04 Jan 2000 19:03:31.770    04 Jan 2000 19:14:15.285      643.51508415    
04 Jan 2000 20:49:18.784    04 Jan 2000 21:01:21.594      722.81039591    
04 Jan 2000 22:36:40.262    04 Jan 2000 22:46:35.245      594.98249969    
05 Jan 2000 07:36:14.084    05 Jan 2000 07:42:55.888      401.80426202    
05 Jan 2000 09:20:16.484    05 Jan 2000 09:31:45.439      688.95451657    
05 Jan 2000 11:06:26.828    05 Jan 2000 11:18:10.827      703.99834370    
05 Jan 2000 12:54:30.424    05 Jan 2000 13:03:31.665      541.24084351    
05 Jan 2000 14:44:03.123    05 Jan 2000 14:48:42.678      279.55492950    
05 Jan 2000 16:31:32.587    05 Jan 2000 16:36:35.518      302.93113858    
05 Jan 2000 18:16:40.524    05 Jan 2000 18:26:04.434      563.91003194    
05 Jan 2000 20:02:05.412    05 Jan 2000 20:13:57.450      712.03885437    
05 Jan 2000 21:48:39.836    05 Jan 2000 21:59:57.485      677.64920328    
05 Jan 2000 23:37:54.274    05 Jan 2000 23:43:40.508      346.23388443    
06 Jan 2000 08:33:33.920    06 Jan 2000 08:43:51.232      617.31105521    
06 Jan 2000 10:18:58.450    06 Jan 2000 10:31:00.396      721.94627618    


Number of events : 48


Observer: PR
Start Time (UTC)            Stop Time (UTC)               Duration (s)         
01 Jan 2000 12:30:31.372    01 Jan 2000 12:41:10.900      639.52775602    
01 Jan 2000 14:15:50.440    01 Jan 2000 14:27:58.044      727.60387097    
01 Jan 2000 16:02:02.324    01 Jan 2000 16:14:22.006      739.68193517    
01 Jan 2000 17:48:25.279    01 Jan 2000 18:00:37.751      732.47151864    
01 Jan 2000 19:35:04.871    01 Jan 2000 19:46:09.790      664.91820621    
01 Jan 2000 21:23:36.758    01 Jan 2000 21:29:23.013      346.25539313    
02 Jan 2000 11:44:10.971    02 Jan 2000 11:53:15.437      544.46563146    
02 Jan 2000 13:28:46.399    02 Jan 2000 13:40:33.798      707.39837241    
02 Jan 2000 15:14:43.778    02 Jan 2000 15:27:01.901      738.12223451    
02 Jan 2000 17:01:04.696    02 Jan 2000 17:13:22.892      738.19675759    
02 Jan 2000 18:47:33.019    02 Jan 2000 18:59:19.395      706.37695463    
02 Jan 2000 20:34:53.863    02 Jan 2000 20:43:51.829      537.96635476    
03 Jan 2000 10:58:35.558    03 Jan 2000 11:04:36.833      361.27431092    
03 Jan 2000 12:41:55.180    03 Jan 2000 12:53:02.487      667.30675347    
03 Jan 2000 14:27:28.727    03 Jan 2000 14:39:41.287      732.56080225    
03 Jan 2000 16:13:44.667    03 Jan 2000 16:26:04.373      739.70554542    
03 Jan 2000 18:00:08.553    03 Jan 2000 18:12:15.881      727.32875239    
03 Jan 2000 19:46:56.863    03 Jan 2000 19:57:33.092      636.22854212    
03 Jan 2000 21:36:51.274    03 Jan 2000 21:39:22.167      150.89319464    
04 Jan 2000 11:55:22.934    04 Jan 2000 12:05:17.184      594.24983009    
04 Jan 2000 13:40:20.396    04 Jan 2000 13:52:18.793      718.39665785    
04 Jan 2000 15:26:25.346    04 Jan 2000 15:38:44.485      739.13860397    
04 Jan 2000 17:12:47.336    04 Jan 2000 17:25:03.700      736.36437119    
04 Jan 2000 18:59:19.610    04 Jan 2000 19:10:50.475      690.86501214    
04 Jan 2000 20:47:04.806    04 Jan 2000 20:54:54.206      469.39955457    
05 Jan 2000 11:09:22.240    05 Jan 2000 11:17:03.395      461.15501791    
05 Jan 2000 12:53:22.781    05 Jan 2000 13:04:51.309      688.52761503    
05 Jan 2000 14:39:08.371    05 Jan 2000 14:51:24.172      735.80068202    
05 Jan 2000 16:25:27.134    05 Jan 2000 16:37:46.480      739.34601144    
05 Jan 2000 18:11:52.462    05 Jan 2000 18:23:52.259      719.79678950    
05 Jan 2000 19:58:52.722    05 Jan 2000 20:08:51.671      598.94876954    
06 Jan 2000 10:25:09.242    06 Jan 2000 10:27:01.976      112.73428656    


Number of events : 32


Observer: RJ
Start Time (UTC)            Stop Time (UTC)               Duration (s)         
01 Jan 2000 12:31:15.266    01 Jan 2000 12:42:59.474      704.20844554    
01 Jan 2000 14:17:12.872    01 Jan 2000 14:29:31.502      738.63002508    
01 Jan 2000 16:03:42.276    01 Jan 2000 16:16:00.347      738.07056919    
01 Jan 2000 17:50:09.191    01 Jan 2000 18:02:25.280      736.08885405    
01 Jan 2000 19:36:51.938    01 Jan 2000 19:48:00.070      668.13205766    
01 Jan 2000 21:25:43.826    01 Jan 2000 21:31:01.611      317.78520205    
02 Jan 2000 10:02:01.026    02 Jan 2000 10:05:57.489      236.46273779    
02 Jan 2000 11:44:28.456    02 Jan 2000 11:55:23.071      654.61470113    
02 Jan 2000 13:29:56.067    02 Jan 2000 13:42:09.946      733.87947878    
02 Jan 2000 15:16:18.776    02 Jan 2000 15:28:36.877      738.10134251    
02 Jan 2000 17:02:47.854    02 Jan 2000 17:15:07.061      739.20627201    
02 Jan 2000 18:49:18.087    02 Jan 2000 19:01:09.591      711.50394981    
02 Jan 2000 20:36:47.804    02 Jan 2000 20:45:39.173      531.36926031    
03 Jan 2000 10:58:04.564    03 Jan 2000 11:07:27.788      563.22389762    
03 Jan 2000 12:42:48.215    03 Jan 2000 12:54:45.798      717.58221660    
03 Jan 2000 14:28:55.795    03 Jan 2000 14:41:14.640      738.84524218    
03 Jan 2000 16:15:26.030    03 Jan 2000 16:27:44.518      738.48764787    
03 Jan 2000 18:01:52.721    03 Jan 2000 18:14:04.550      731.82919821    
03 Jan 2000 19:48:45.412    03 Jan 2000 19:59:22.915      637.50333876    
04 Jan 2000 10:12:22.658    04 Jan 2000 10:18:51.622      388.96484419    
04 Jan 2000 11:55:53.686    04 Jan 2000 12:07:14.627      680.94101523    
04 Jan 2000 13:41:36.256    04 Jan 2000 13:53:53.264      737.00799763    
04 Jan 2000 15:28:02.918    04 Jan 2000 15:40:20.826      737.90762090    
04 Jan 2000 17:14:30.904    04 Jan 2000 17:26:49.508      738.60329487    
04 Jan 2000 19:01:05.397    04 Jan 2000 19:12:40.890      695.49283261    
04 Jan 2000 20:49:02.845    04 Jan 2000 20:56:39.203      456.35809286    
05 Jan 2000 11:09:18.214    05 Jan 2000 11:19:29.400      611.18574803    
05 Jan 2000 12:54:23.859    05 Jan 2000 13:06:30.724      726.86520978    
05 Jan 2000 14:40:39.408    05 Jan 2000 14:52:57.976      738.56821127    
05 Jan 2000 16:27:09.499    05 Jan 2000 16:39:28.471      738.97243735    
05 Jan 2000 18:13:36.950    05 Jan 2000 18:25:41.792      724.84205231    
05 Jan 2000 20:00:43.265    05 Jan 2000 20:10:40.679      597.41415392    
06 Jan 2000 10:23:13.109    06 Jan 2000 10:31:16.366      483.25665572    


Number of events : 33


Observer: RN
Start Time (UTC)            Stop Time (UTC)               Duration (s)         
01 Jan 2000 12:32:51.466    01 Jan 2000 12:42:28.690      577.22381697    
01 Jan 2000 14:22:01.099    01 Jan 2000 14:27:52.984      351.88573594    
01 Jan 2000 16:09:41.973    01 Jan 2000 16:15:28.012      346.03923841    
01 Jan 2000 17:55:07.616    01 Jan 2000 18:04:38.859      571.24325854    
01 Jan 2000 19:40:36.681    01 Jan 2000 19:52:29.501      712.82019097    
01 Jan 2000 21:27:10.834    01 Jan 2000 21:38:29.806      678.97201627    
01 Jan 2000 23:16:24.905    01 Jan 2000 23:22:10.128      345.22336355    
02 Jan 2000 08:12:32.771    02 Jan 2000 08:22:18.775      586.00422253    
02 Jan 2000 09:57:41.956    02 Jan 2000 10:09:43.721      721.76507934    
02 Jan 2000 11:44:43.902    02 Jan 2000 11:55:34.574      650.67243789    
02 Jan 2000 13:33:29.081    02 Jan 2000 13:40:51.702      442.62122466    
02 Jan 2000 15:22:15.656    02 Jan 2000 15:27:12.909      297.25261879    
02 Jan 2000 17:08:15.357    02 Jan 2000 17:16:14.592      479.23425845    
02 Jan 2000 18:53:33.695    02 Jan 2000 19:04:46.740      673.04456936    
02 Jan 2000 20:39:34.386    02 Jan 2000 20:51:32.212      717.82607655    
02 Jan 2000 22:27:21.701    02 Jan 2000 22:36:22.401      540.69944696    
03 Jan 2000 07:26:26.739    03 Jan 2000 07:33:38.438      431.69861839    
03 Jan 2000 09:10:37.576    03 Jan 2000 09:22:14.105      696.52849511    
03 Jan 2000 10:56:54.381    03 Jan 2000 11:08:34.621      700.24006973    
03 Jan 2000 12:45:00.764    03 Jan 2000 12:53:58.609      537.84477306    
03 Jan 2000 14:34:12.641    03 Jan 2000 14:39:33.321      320.67941569    
03 Jan 2000 16:21:18.423    03 Jan 2000 16:27:42.191      383.76758248    
03 Jan 2000 18:06:37.836    03 Jan 2000 18:16:45.595      607.75902872    
03 Jan 2000 19:52:14.753    03 Jan 2000 20:04:16.195      721.44258216    
03 Jan 2000 21:39:07.869    03 Jan 2000 21:49:55.838      647.96857412    
03 Jan 2000 23:29:40.096    03 Jan 2000 23:32:29.598      169.50185577    
04 Jan 2000 08:23:52.371    04 Jan 2000 08:34:23.893      631.52129013    
04 Jan 2000 10:09:23.396    04 Jan 2000 10:21:25.378      721.98252340    
04 Jan 2000 11:56:45.697    04 Jan 2000 12:07:05.907      620.21004183    
04 Jan 2000 13:45:44.470    04 Jan 2000 13:52:24.065      399.59477610    
04 Jan 2000 15:34:05.139    04 Jan 2000 15:39:16.650      311.51096940    
04 Jan 2000 17:19:45.469    04 Jan 2000 17:28:27.635      522.16659511    
04 Jan 2000 19:05:07.432    04 Jan 2000 19:16:41.801      694.36873515    
04 Jan 2000 20:51:21.893    04 Jan 2000 21:03:06.924      705.03117858    
04 Jan 2000 22:39:41.990    04 Jan 2000 22:47:30.431      468.44113623    
05 Jan 2000 07:37:30.932    05 Jan 2000 07:46:03.504      512.57229333    
05 Jan 2000 09:22:10.748    05 Jan 2000 09:34:03.101      712.35305755    
05 Jan 2000 11:08:47.895    05 Jan 2000 11:20:09.020      681.12538514    
05 Jan 2000 12:57:12.828    05 Jan 2000 13:05:28.569      495.74044343    
