python_scritps/data/SCD2Contact.txt

Target: SCD2

Observer: AC
Start Time (UTC)            Stop Time (UTC)               Duration (s)         
01 Jan 2000 19:31:53.643    01 Jan 2000 19:42:24.402      630.75900895    
01 Jan 2000 21:17:24.654    01 Jan 2000 21:29:29.670      725.01689515    
01 Jan 2000 23:04:39.383    01 Jan 2000 23:15:25.754      646.37122530    
02 Jan 2000 00:52:51.283    02 Jan 2000 01:01:27.016      515.73325926    
02 Jan 2000 02:40:13.266    02 Jan 2000 02:48:48.823      515.55696615    
02 Jan 2000 04:26:14.604    02 Jan 2000 04:36:56.143      641.53916698    
02 Jan 2000 06:12:12.708    02 Jan 2000 06:24:03.665      710.95667670    
02 Jan 2000 07:59:23.791    02 Jan 2000 08:09:25.849      602.05745565    
02 Jan 2000 18:46:32.902    02 Jan 2000 18:55:00.789      507.88667860    
02 Jan 2000 20:31:09.233    02 Jan 2000 20:43:03.635      714.40240711    
02 Jan 2000 22:17:46.011    02 Jan 2000 22:29:17.928      691.91715829    
03 Jan 2000 00:05:44.718    03 Jan 2000 00:15:07.698      562.97978464    
03 Jan 2000 01:53:39.860    03 Jan 2000 02:01:51.650      491.79042588    
03 Jan 2000 03:40:06.041    03 Jan 2000 03:49:54.959      588.91810735    
03 Jan 2000 05:25:56.148    03 Jan 2000 05:37:34.809      698.66126116    
03 Jan 2000 07:12:27.852    03 Jan 2000 07:23:42.834      674.98253285    
03 Jan 2000 09:01:30.662    03 Jan 2000 09:07:23.939      353.27716435    


Number of events : 17


Observer: AL
Start Time (UTC)            Stop Time (UTC)               Duration (s)         
01 Jan 2000 16:09:53.932    01 Jan 2000 16:15:43.709      349.77764224    
01 Jan 2000 17:53:31.040    01 Jan 2000 18:04:56.602      685.56169871    
01 Jan 2000 19:39:37.408    01 Jan 2000 19:51:31.628      714.21953085    
01 Jan 2000 21:27:18.958    01 Jan 2000 21:37:19.494      600.53639357    
01 Jan 2000 23:15:32.561    01 Jan 2000 23:23:35.921      483.35983454    
02 Jan 2000 01:02:26.907    02 Jan 2000 01:11:24.180      537.27341067    
02 Jan 2000 02:48:17.133    02 Jan 2000 02:59:26.605      669.47149700    
02 Jan 2000 04:34:25.710    02 Jan 2000 04:46:10.404      704.69378036    
02 Jan 2000 06:22:13.602    02 Jan 2000 06:30:57.921      524.31919074    
02 Jan 2000 17:07:49.014    02 Jan 2000 17:17:57.858      608.84381934    
02 Jan 2000 18:53:09.036    02 Jan 2000 19:05:14.336      725.30021091    
02 Jan 2000 20:40:16.355    02 Jan 2000 20:51:12.634      656.27865874    
02 Jan 2000 22:28:30.170    02 Jan 2000 22:37:07.180      517.00963191    
03 Jan 2000 00:16:04.701    03 Jan 2000 00:24:18.813      494.11169076    
03 Jan 2000 02:02:10.017    03 Jan 2000 02:12:31.031      621.01352551    
03 Jan 2000 03:48:02.645    03 Jan 2000 03:59:52.004      709.35948221    
03 Jan 2000 05:34:57.961    03 Jan 2000 05:45:31.425      633.46355951    


Number of events : 17


Observer: AM
Start Time (UTC)            Stop Time (UTC)               Duration (s)         
01 Jan 2000 17:46:51.336    01 Jan 2000 17:56:52.031      600.69578248    
01 Jan 2000 19:32:13.113    01 Jan 2000 19:44:19.878      726.76517229    
01 Jan 2000 21:19:25.766    01 Jan 2000 21:30:03.309      637.54289233    
01 Jan 2000 23:08:58.198    01 Jan 2000 23:14:33.417      335.21904275    
02 Jan 2000 02:46:17.779    02 Jan 2000 02:48:12.791      115.01173567    
02 Jan 2000 04:29:54.640    02 Jan 2000 04:39:04.431      549.79184509    
02 Jan 2000 06:15:12.383    02 Jan 2000 06:26:56.455      704.07196154    
02 Jan 2000 08:01:58.238    02 Jan 2000 08:12:51.664      653.42576421    
02 Jan 2000 09:51:40.750    02 Jan 2000 09:56:31.322      290.57194126    
02 Jan 2000 17:01:28.968    02 Jan 2000 17:09:14.553      465.58512835    
02 Jan 2000 18:46:02.601    02 Jan 2000 18:57:47.907      705.30543089    
02 Jan 2000 20:32:29.339    02 Jan 2000 20:44:06.313      696.97464224    
02 Jan 2000 22:21:00.286    02 Jan 2000 22:29:06.113      485.82736321    
03 Jan 2000 03:44:18.050    03 Jan 2000 03:51:26.622      428.57185879    
03 Jan 2000 05:29:07.786    03 Jan 2000 05:40:14.355      666.56913488    
03 Jan 2000 07:15:13.377    03 Jan 2000 07:26:53.347      699.96940226    
03 Jan 2000 09:03:23.055    03 Jan 2000 09:11:40.934      497.87879779    


Number of events : 17


Observer: AP
Start Time (UTC)            Stop Time (UTC)               Duration (s)         
01 Jan 2000 16:03:08.315    01 Jan 2000 16:11:18.948      490.63327094    
01 Jan 2000 17:47:58.608    01 Jan 2000 17:59:45.485      706.87710940    
01 Jan 2000 19:34:26.785    01 Jan 2000 19:46:02.013      695.22834846    
01 Jan 2000 21:23:12.163    01 Jan 2000 21:30:38.977      446.81416266    
02 Jan 2000 04:32:41.906    02 Jan 2000 04:42:03.736      561.82988895    
02 Jan 2000 06:17:56.733    02 Jan 2000 06:29:45.761      709.02759939    
02 Jan 2000 08:04:55.343    02 Jan 2000 08:15:33.178      637.83464291    
02 Jan 2000 09:54:42.885    02 Jan 2000 09:59:28.984      286.09971176    
02 Jan 2000 15:18:03.535    02 Jan 2000 15:23:04.404      300.86892134    
02 Jan 2000 17:02:01.822    02 Jan 2000 17:12:53.384      651.56269911    
02 Jan 2000 18:47:49.643    02 Jan 2000 18:59:54.784      725.14124351    
02 Jan 2000 20:35:31.319    02 Jan 2000 20:45:12.387      581.06802892    
03 Jan 2000 03:47:17.368    03 Jan 2000 03:54:21.638      424.26971958    
03 Jan 2000 05:31:50.526    03 Jan 2000 05:43:08.644      678.11742959    
03 Jan 2000 07:18:04.406    03 Jan 2000 07:29:36.606      692.19974672    
03 Jan 2000 09:06:28.144    03 Jan 2000 09:14:26.011      477.86687877    


Number of events : 16


Observer: BA
Start Time (UTC)            Stop Time (UTC)               Duration (s)         
01 Jan 2000 17:53:50.432    01 Jan 2000 18:04:04.476      614.04440658    
01 Jan 2000 19:39:10.992    01 Jan 2000 19:51:15.122      724.12950086    
01 Jan 2000 21:26:10.426    01 Jan 2000 21:37:22.964      672.53856099    
01 Jan 2000 23:13:50.947    01 Jan 2000 23:23:43.579      592.63134190    
02 Jan 2000 01:00:50.458    02 Jan 2000 01:11:02.485      612.02754497    
02 Jan 2000 02:46:59.901    02 Jan 2000 02:58:32.696      692.79511382    
02 Jan 2000 04:33:22.649    02 Jan 2000 04:44:55.767      693.11811329    
02 Jan 2000 06:21:33.615    02 Jan 2000 06:29:13.490      459.87507992    
02 Jan 2000 17:08:38.282    02 Jan 2000 17:16:36.174      477.89192421    
02 Jan 2000 18:52:59.321    02 Jan 2000 19:04:46.728      707.40773573    
02 Jan 2000 20:39:24.795    02 Jan 2000 20:51:09.224      704.42954736    
02 Jan 2000 22:26:58.464    02 Jan 2000 22:37:16.605      618.14106322    
03 Jan 2000 00:14:21.949    03 Jan 2000 00:24:11.799      589.84985584    
03 Jan 2000 02:00:45.625    03 Jan 2000 02:11:48.266      662.64096141    
03 Jan 2000 03:46:54.294    03 Jan 2000 03:58:44.994      710.70064089    
03 Jan 2000 05:34:04.779    03 Jan 2000 05:44:03.144      598.36537179    


Number of events : 16


Observer: CE
Start Time (UTC)            Stop Time (UTC)               Duration (s)         
01 Jan 2000 16:06:42.940    01 Jan 2000 16:15:45.856      542.91571373    
01 Jan 2000 17:51:41.445    01 Jan 2000 18:03:42.118      720.67231344    
01 Jan 2000 19:38:31.428    01 Jan 2000 19:49:42.214      670.78610997    
01 Jan 2000 21:27:27.699    01 Jan 2000 21:34:34.119      426.41998610    
02 Jan 2000 01:05:21.747    02 Jan 2000 01:07:23.544      121.79681001    
02 Jan 2000 02:49:15.329    02 Jan 2000 02:58:06.703      531.37429260    
02 Jan 2000 04:34:30.168    02 Jan 2000 04:46:08.684      698.51530980    
02 Jan 2000 06:21:06.175    02 Jan 2000 06:32:13.262      667.08770731    
02 Jan 2000 08:10:24.030    02 Jan 2000 08:16:08.477      344.44706929    
02 Jan 2000 15:21:40.700    02 Jan 2000 15:27:43.004      362.30369140    
02 Jan 2000 17:05:39.133    02 Jan 2000 17:17:01.286      682.15357874    
02 Jan 2000 18:51:44.788    02 Jan 2000 19:03:39.071      714.28319947    
02 Jan 2000 20:39:47.630    02 Jan 2000 20:48:55.316      547.68589914    
02 Jan 2000 22:30:25.068    02 Jan 2000 22:32:56.205      151.13664817    
03 Jan 2000 02:03:37.236    03 Jan 2000 02:10:26.665      409.42922820    
03 Jan 2000 03:48:27.606    03 Jan 2000 03:59:22.430      654.82415389    
03 Jan 2000 05:34:26.105    03 Jan 2000 05:46:11.411      705.30522658    
03 Jan 2000 07:22:20.583    03 Jan 2000 07:31:08.384      527.80105522    


Number of events : 18


Observer: ES
Start Time (UTC)            Stop Time (UTC)               Duration (s)         
01 Jan 2000 17:56:52.860    01 Jan 2000 18:02:11.766      318.90607488    
01 Jan 2000 19:40:03.585    01 Jan 2000 19:51:10.546      666.96100185    
01 Jan 2000 21:25:50.987    01 Jan 2000 21:37:51.970      720.98354880    
01 Jan 2000 23:12:33.508    01 Jan 2000 23:24:17.222      703.71403531    
02 Jan 2000 00:59:14.815    02 Jan 2000 01:10:58.964      704.14875780    
02 Jan 2000 02:45:41.101    02 Jan 2000 02:57:30.119      709.01752791    
02 Jan 2000 04:32:39.729    02 Jan 2000 04:42:49.922      610.19344364    
02 Jan 2000 18:54:27.000    02 Jan 2000 19:04:17.661      590.66072388    
02 Jan 2000 20:39:32.922    02 Jan 2000 20:51:28.075      715.15277016    
02 Jan 2000 22:26:01.009    02 Jan 2000 22:37:52.781      711.77269929    
03 Jan 2000 00:12:47.875    03 Jan 2000 00:24:27.855      699.97946243    
03 Jan 2000 01:59:17.686    03 Jan 2000 02:11:09.651      711.96543047    
03 Jan 2000 03:45:53.968    03 Jan 2000 03:57:06.098      672.12963675    
03 Jan 2000 05:34:14.383    03 Jan 2000 05:40:52.736      398.35324064    


Number of events : 14


Observer: GO
Start Time (UTC)            Stop Time (UTC)               Duration (s)         
01 Jan 2000 17:54:33.439    01 Jan 2000 17:58:47.451      254.01148087    
01 Jan 2000 19:37:20.228    01 Jan 2000 19:48:25.175      664.94658535    
01 Jan 2000 21:23:08.034    01 Jan 2000 21:35:09.871      721.83673424    
01 Jan 2000 23:10:07.222    01 Jan 2000 23:21:27.451      680.22977700    
02 Jan 2000 00:57:11.785    02 Jan 2000 01:08:12.595      660.80996400    
02 Jan 2000 02:43:40.865    02 Jan 2000 02:55:19.001      698.13635359    
02 Jan 2000 04:30:04.945    02 Jan 2000 04:41:44.192      699.24775214    
02 Jan 2000 06:17:46.067    02 Jan 2000 06:26:21.724      515.65719852    
02 Jan 2000 18:51:46.964    02 Jan 2000 19:01:25.146      578.18199989    
02 Jan 2000 20:36:48.160    02 Jan 2000 20:48:46.671      718.51016275    
02 Jan 2000 22:23:26.062    02 Jan 2000 22:35:06.360      700.29801299    
03 Jan 2000 00:10:36.601    03 Jan 2000 00:21:36.896      660.29545921    
03 Jan 2000 01:57:19.987    03 Jan 2000 02:08:40.616      680.62938665    
03 Jan 2000 03:43:38.955    03 Jan 2000 03:55:30.259      711.30479076    
03 Jan 2000 05:30:34.782    03 Jan 2000 05:41:00.487      625.70514316    


Number of events : 15


Observer: MA
Start Time (UTC)            Stop Time (UTC)               Duration (s)         
01 Jan 2000 16:05:16.316    01 Jan 2000 16:13:45.790      509.47369882    
01 Jan 2000 17:50:06.008    01 Jan 2000 18:02:00.087      714.07869790    
01 Jan 2000 19:36:44.017    01 Jan 2000 19:48:08.550      684.53273376    
01 Jan 2000 21:25:34.083    01 Jan 2000 21:32:54.677      440.59344605    
02 Jan 2000 02:48:49.827    02 Jan 2000 02:55:35.211      405.38346145    
02 Jan 2000 04:33:29.956    02 Jan 2000 04:44:32.356      662.39974113    
02 Jan 2000 06:19:32.583    02 Jan 2000 06:31:14.321      701.73838532    
02 Jan 2000 08:07:37.737    02 Jan 2000 08:16:07.577      509.84017428    
02 Jan 2000 15:20:20.239    02 Jan 2000 15:25:30.054      309.81517041    
02 Jan 2000 17:04:07.561    02 Jan 2000 17:15:13.241      665.68003383    
02 Jan 2000 18:50:02.363    02 Jan 2000 19:02:03.295      720.93153836    
02 Jan 2000 20:37:54.168    02 Jan 2000 20:47:20.839      566.67013094    
02 Jan 2000 22:29:21.535    02 Jan 2000 22:30:20.995      59.460522572    
03 Jan 2000 02:03:49.302    03 Jan 2000 02:07:06.499      197.19755711    
03 Jan 2000 03:47:39.067    03 Jan 2000 03:57:27.976      588.90883864    
03 Jan 2000 05:33:07.443    03 Jan 2000 05:44:58.124      710.68106998    
03 Jan 2000 07:20:14.747    03 Jan 2000 07:30:35.134      620.38679102    
03 Jan 2000 09:11:13.272    03 Jan 2000 09:13:16.729      123.45712149    


Number of events : 18


Observer: MG
Start Time (UTC)            Stop Time (UTC)               Duration (s)         
01 Jan 2000 17:56:53.921    01 Jan 2000 18:00:12.365      198.44453065    
01 Jan 2000 19:39:13.643    01 Jan 2000 19:50:04.652      651.00812557    
01 Jan 2000 21:24:51.402    01 Jan 2000 21:36:52.510      721.10805715    
01 Jan 2000 23:11:32.707    01 Jan 2000 23:23:16.446      703.73849391    
02 Jan 2000 00:58:18.035    02 Jan 2000 01:09:57.534      699.49894426    
02 Jan 2000 02:44:44.645    02 Jan 2000 02:56:36.463      711.81805964    
02 Jan 2000 04:31:31.422    02 Jan 2000 04:42:14.691      643.26825324    
02 Jan 2000 06:21:11.291    02 Jan 2000 06:24:43.743      212.45169385    
02 Jan 2000 18:53:44.514    02 Jan 2000 19:03:04.315      559.80017128    
02 Jan 2000 20:38:36.124    02 Jan 2000 20:50:27.408      711.28417096    
02 Jan 2000 22:24:59.727    02 Jan 2000 22:36:52.987      713.26003595    
03 Jan 2000 00:11:49.397    03 Jan 2000 00:23:25.971      696.57363009    
03 Jan 2000 01:58:22.080    03 Jan 2000 02:10:11.711      709.63126050    
03 Jan 2000 03:44:52.621    03 Jan 2000 03:56:21.886      689.26487120    
03 Jan 2000 05:32:39.912    03 Jan 2000 05:40:44.335      484.42312935    


Number of events : 15


Observer: MS
Start Time (UTC)            Stop Time (UTC)               Duration (s)         
01 Jan 2000 19:37:33.314    01 Jan 2000 19:46:28.953      535.63929442    
01 Jan 2000 21:22:14.047    01 Jan 2000 21:34:00.248      706.20091015    
01 Jan 2000 23:08:31.607    01 Jan 2000 23:20:27.583      715.97602058    
02 Jan 2000 00:55:18.279    02 Jan 2000 01:06:59.091      700.81224778    
02 Jan 2000 02:41:50.891    02 Jan 2000 02:53:41.744      710.85261967    
02 Jan 2000 04:28:22.312    02 Jan 2000 04:39:49.251      686.93807835    
02 Jan 2000 06:16:11.091    02 Jan 2000 06:24:08.566      477.47438002    
02 Jan 2000 18:52:59.591    02 Jan 2000 18:58:32.733      333.14170634    
02 Jan 2000 20:36:16.137    02 Jan 2000 20:47:25.080      668.94279871    
02 Jan 2000 22:22:04.756    02 Jan 2000 22:34:05.634      720.87871571    
03 Jan 2000 00:08:46.932    03 Jan 2000 00:20:31.197      704.26489263    
03 Jan 2000 01:55:27.217    03 Jan 2000 02:07:12.638      705.42041279    
03 Jan 2000 03:41:53.697    03 Jan 2000 03:53:41.476      707.77891092    
03 Jan 2000 05:28:55.604    03 Jan 2000 05:38:56.438      600.83381765    


Number of events : 14


Observer: MT
Start Time (UTC)            Stop Time (UTC)               Duration (s)         
01 Jan 2000 19:35:41.715    01 Jan 2000 19:46:16.359      634.64451738    
01 Jan 2000 21:21:11.924    01 Jan 2000 21:33:15.265      723.34158079    
01 Jan 2000 23:08:08.105    01 Jan 2000 23:19:29.350      681.24495110    
02 Jan 2000 00:55:25.587    02 Jan 2000 01:06:05.266      639.67888865    
02 Jan 2000 02:42:05.029    02 Jan 2000 02:53:18.643      673.61405493    
02 Jan 2000 04:28:20.618    02 Jan 2000 04:40:11.785      711.16744678    
02 Jan 2000 06:15:19.718    02 Jan 2000 06:25:39.512      619.79460610    
02 Jan 2000 18:50:21.584    02 Jan 2000 18:59:01.023      519.43873793    
02 Jan 2000 20:34:57.479    02 Jan 2000 20:46:49.093      711.61321923    
02 Jan 2000 22:21:26.038    02 Jan 2000 22:33:11.234      705.19613569    
03 Jan 2000 00:08:44.092    03 Jan 2000 00:19:32.569      648.47719671    
03 Jan 2000 01:55:41.808    03 Jan 2000 02:06:34.576      652.76868828    
03 Jan 2000 03:42:00.696    03 Jan 2000 03:53:44.733      704.03666011    
03 Jan 2000 05:28:32.054    03 Jan 2000 05:39:53.394      681.33915479    
03 Jan 2000 07:17:00.887    03 Jan 2000 07:23:46.749      405.86228605    


Number of events : 15


Observer: PA
Start Time (UTC)            Stop Time (UTC)               Duration (s)         
01 Jan 2000 16:04:12.056    01 Jan 2000 16:12:04.607      472.55085889    
01 Jan 2000 17:48:52.483    01 Jan 2000 18:00:37.295      704.81245302    
01 Jan 2000 19:35:18.593    01 Jan 2000 19:46:55.994      697.40092582    
01 Jan 2000 21:23:55.460    01 Jan 2000 21:31:44.820      469.36012327    
02 Jan 2000 02:48:47.997    02 Jan 2000 02:53:05.514      257.51720454    
02 Jan 2000 04:32:45.274    02 Jan 2000 04:43:03.750      618.47519627    
02 Jan 2000 06:18:24.181    02 Jan 2000 06:30:15.553      711.37250250    
02 Jan 2000 08:05:51.414    02 Jan 2000 08:15:38.435      587.02108862    
02 Jan 2000 15:19:26.538    02 Jan 2000 15:23:32.448      245.91016788    
02 Jan 2000 17:02:57.752    02 Jan 2000 17:13:44.301      646.54887220    
02 Jan 2000 18:48:42.125    02 Jan 2000 19:00:47.517      725.39230833    
02 Jan 2000 20:36:20.460    02 Jan 2000 20:46:10.912      590.45138805    
02 Jan 2000 22:27:28.811    02 Jan 2000 22:29:18.335      109.52410324    
03 Jan 2000 03:47:04.677    03 Jan 2000 03:55:42.956      518.27943963    
03 Jan 2000 05:32:09.049    03 Jan 2000 05:43:48.591      699.54192362    
03 Jan 2000 07:18:47.079    03 Jan 2000 07:29:52.389      665.31043496    
03 Jan 2000 09:08:00.467    03 Jan 2000 09:14:02.462      361.99532171    


Number of events : 17


Observer: PB
Start Time (UTC)            Stop Time (UTC)               Duration (s)         
01 Jan 2000 16:08:38.282    01 Jan 2000 16:16:45.701      487.41928622    
01 Jan 2000 17:53:10.932    01 Jan 2000 18:05:02.560      711.62830446    
01 Jan 2000 19:39:44.942    01 Jan 2000 19:51:16.784      691.84170922    
01 Jan 2000 21:28:01.145    01 Jan 2000 21:36:44.539      523.39449374    
01 Jan 2000 23:16:52.736    01 Jan 2000 23:22:43.859      351.12301565    
02 Jan 2000 01:03:35.807    02 Jan 2000 01:11:03.194      447.38705233    
02 Jan 2000 02:49:03.088    02 Jan 2000 02:59:40.890      637.80149332    
02 Jan 2000 04:34:55.957    02 Jan 2000 04:46:46.534      710.57713396    
02 Jan 2000 06:22:20.714    02 Jan 2000 06:32:00.356      579.64202516    
02 Jan 2000 15:24:21.555    02 Jan 2000 15:28:00.038      218.48272663    
02 Jan 2000 17:07:15.486    02 Jan 2000 17:18:16.499      661.01270568    
02 Jan 2000 18:53:05.467    02 Jan 2000 19:05:06.994      721.52765261    
02 Jan 2000 20:40:43.212    02 Jan 2000 20:50:46.252      603.03968824    
02 Jan 2000 22:29:37.723    02 Jan 2000 22:36:19.007      401.28375683    
03 Jan 2000 00:17:23.616    03 Jan 2000 00:23:40.624      377.00806623    
03 Jan 2000 02:03:03.886    03 Jan 2000 02:12:33.430      569.54418464    
03 Jan 2000 03:48:38.892    03 Jan 2000 04:00:20.180      701.28758876    
03 Jan 2000 05:35:17.232    03 Jan 2000 05:46:20.696      663.46437244    
03 Jan 2000 07:24:49.430    03 Jan 2000 07:29:48.511      299.08088946    


Number of events : 19


Observer: PE
Start Time (UTC)            Stop Time (UTC)               Duration (s)         
01 Jan 2000 16:09:04.155    01 Jan 2000 16:16:35.090      450.93528450    
01 Jan 2000 17:53:21.827    01 Jan 2000 18:05:06.654      704.82754296    
01 Jan 2000 19:39:47.051    01 Jan 2000 19:51:27.553      700.50151156    
01 Jan 2000 21:27:50.661    01 Jan 2000 21:37:03.398      552.73765521    
01 Jan 2000 23:16:25.482    01 Jan 2000 23:23:12.330      406.84763042    
02 Jan 2000 01:03:13.128    02 Jan 2000 01:11:19.443      486.31437526    
02 Jan 2000 02:48:49.992    02 Jan 2000 02:59:42.208      652.21630525    
02 Jan 2000 04:34:49.579    02 Jan 2000 04:46:38.393      708.81345350    
02 Jan 2000 06:22:24.309    02 Jan 2000 06:31:41.381      557.07171030    
02 Jan 2000 15:25:55.308    02 Jan 2000 15:26:41.021      45.713489538    
02 Jan 2000 17:07:30.375    02 Jan 2000 17:18:16.935      646.55961130    
02 Jan 2000 18:53:11.210    02 Jan 2000 19:05:15.209      723.99948559    
02 Jan 2000 20:40:38.558    02 Jan 2000 20:51:01.419      622.86074002    
02 Jan 2000 22:29:16.495    02 Jan 2000 22:36:44.550      448.05559753    
03 Jan 2000 00:16:56.568    03 Jan 2000 00:24:04.130      427.56209291    
03 Jan 2000 02:02:47.516    03 Jan 2000 02:12:39.806      592.28962994    
03 Jan 2000 03:48:29.894    03 Jan 2000 04:00:15.493      705.59937197    
03 Jan 2000 05:35:15.694    03 Jan 2000 05:46:06.991      651.29766301    
03 Jan 2000 07:25:22.467    03 Jan 2000 07:29:00.524      218.05765381    


Number of events : 19


Observer: PI
Start Time (UTC)            Stop Time (UTC)               Duration (s)         
01 Jan 2000 16:06:43.192    01 Jan 2000 16:13:42.954      419.76267302    
01 Jan 2000 17:50:56.431    01 Jan 2000 18:02:33.606      697.17541407    
01 Jan 2000 19:37:14.528    01 Jan 2000 19:48:59.680      705.15287532    
01 Jan 2000 21:25:26.660    01 Jan 2000 21:34:17.446      530.78569692    
01 Jan 2000 23:15:19.926    01 Jan 2000 23:19:10.920      230.99399451    
02 Jan 2000 01:02:59.875    02 Jan 2000 01:06:55.915      236.04014151    
02 Jan 2000 02:47:53.597    02 Jan 2000 02:56:43.479      529.88197143    
02 Jan 2000 04:33:13.200    02 Jan 2000 04:44:47.701      694.50100316    
02 Jan 2000 06:19:43.229    02 Jan 2000 06:30:58.305      675.07606986    
02 Jan 2000 08:08:47.474    02 Jan 2000 08:14:57.700      370.22679455    
02 Jan 2000 17:05:07.391    02 Jan 2000 17:15:37.743      630.35199452    
02 Jan 2000 18:50:41.194    02 Jan 2000 19:02:47.283      726.08959351    
02 Jan 2000 20:38:06.922    02 Jan 2000 20:48:26.739      619.81685974    
02 Jan 2000 22:27:26.140    02 Jan 2000 22:33:23.769      357.62907729    
03 Jan 2000 00:16:54.597    03 Jan 2000 00:19:14.357      139.75975479    
03 Jan 2000 02:02:06.862    03 Jan 2000 02:09:09.206      422.34475989    
03 Jan 2000 03:47:10.498    03 Jan 2000 03:57:59.275      648.77738178    
03 Jan 2000 05:33:06.470    03 Jan 2000 05:44:54.252      707.78218741    
03 Jan 2000 07:20:50.664    03 Jan 2000 07:29:55.771      545.10679016    


Number of events : 19


Observer: PR
Start Time (UTC)            Stop Time (UTC)               Duration (s)         
01 Jan 2000 19:40:18.268    01 Jan 2000 19:47:46.494      448.22668486    
01 Jan 2000 21:24:22.567    01 Jan 2000 21:35:36.315      673.74857347    
01 Jan 2000 23:10:13.256    01 Jan 2000 23:22:08.291      715.03491568    
02 Jan 2000 00:56:35.962    02 Jan 2000 01:08:30.327      714.36414351    
02 Jan 2000 02:43:02.817    02 Jan 2000 02:54:38.597      695.78034488    
02 Jan 2000 04:30:02.172    02 Jan 2000 04:39:43.346      581.17403694    
02 Jan 2000 18:57:08.102    02 Jan 2000 18:58:35.029      86.926793202    
02 Jan 2000 20:38:35.863    02 Jan 2000 20:48:57.006      621.14248497    
02 Jan 2000 22:23:57.269    02 Jan 2000 22:35:45.495      708.22587182    
03 Jan 2000 00:10:12.943    03 Jan 2000 00:22:08.792      715.84944493    
03 Jan 2000 01:56:38.324    03 Jan 2000 02:08:26.372      708.04769152    
03 Jan 2000 03:43:16.734    03 Jan 2000 03:54:04.953      648.21826316    
03 Jan 2000 05:31:38.137    03 Jan 2000 05:37:33.412      355.27468388    


Number of events : 13


Observer: RJ
Start Time (UTC)            Stop Time (UTC)               Duration (s)         
01 Jan 2000 19:40:12.212    01 Jan 2000 19:50:13.740      601.52785307    
01 Jan 2000 21:25:23.249    01 Jan 2000 21:37:14.974      711.72519999    
01 Jan 2000 23:11:44.195    01 Jan 2000 23:23:40.749      716.55442785    
02 Jan 2000 00:58:17.931    02 Jan 2000 01:10:11.216      713.28470012    
02 Jan 2000 02:44:46.210    02 Jan 2000 02:56:27.893      701.68285008    
02 Jan 2000 04:31:50.829    02 Jan 2000 04:41:33.063      582.23389842    
02 Jan 2000 18:55:01.522    02 Jan 2000 19:02:59.288      477.76592409    
02 Jan 2000 20:39:17.381    02 Jan 2000 20:50:46.325      688.94405753    
02 Jan 2000 22:25:18.704    02 Jan 2000 22:37:17.835      719.13149909    
03 Jan 2000 00:11:52.407    03 Jan 2000 00:23:45.533      713.12585310    
03 Jan 2000 01:58:21.394    03 Jan 2000 02:10:13.074      711.68025235    
03 Jan 2000 03:45:02.048    03 Jan 2000 03:55:55.598      653.55023610    
03 Jan 2000 05:33:40.384    03 Jan 2000 05:39:15.285      334.90136317    


Number of events : 13


Observer: RN
Start Time (UTC)            Stop Time (UTC)               Duration (s)         
01 Jan 2000 16:08:03.347    01 Jan 2000 16:16:48.956      525.60939101    
01 Jan 2000 17:52:52.168    01 Jan 2000 18:04:50.303      718.13474799    
01 Jan 2000 19:39:36.926    01 Jan 2000 19:50:56.086      679.16063927    
01 Jan 2000 21:28:11.340    01 Jan 2000 21:36:10.774      479.43413572    
01 Jan 2000 23:17:37.296    01 Jan 2000 23:21:45.004      247.70836397    
02 Jan 2000 01:04:08.546    02 Jan 2000 01:10:27.230      378.68454672    
02 Jan 2000 02:49:18.375    02 Jan 2000 02:59:30.769      612.39407103    
02 Jan 2000 04:35:00.558    02 Jan 2000 04:46:51.445      710.88684927    
02 Jan 2000 06:22:10.750    02 Jan 2000 06:32:20.706      609.95613195    
02 Jan 2000 15:23:16.695    02 Jan 2000 15:28:33.550      316.85533634    
02 Jan 2000 17:06:52.146    02 Jan 2000 17:18:08.363      676.21721736    
02 Jan 2000 18:52:52.862    02 Jan 2000 19:04:49.728      716.86599387    
02 Jan 2000 20:40:44.472    02 Jan 2000 20:50:18.907      574.43489690    
02 Jan 2000 22:30:07.834    02 Jan 2000 22:35:30.444      322.61017839    
03 Jan 2000 00:18:06.704    03 Jan 2000 00:22:50.002      283.29871452    
03 Jan 2000 02:03:24.677    03 Jan 2000 02:12:14.952      530.27417944    
03 Jan 2000 03:48:47.597    03 Jan 2000 04:00:19.701      692.10432378    
03 Jan 2000 05:35:14.512    03 Jan 2000 05:46:33.855      679.34287997    
03 Jan 2000 07:24:10.200    03 Jan 2000 07:30:36.873      386.67300451    


Number of events : 19


Observer: RO
Start Time (UTC)            Stop Time (UTC)               Duration (s)         
01 Jan 2000 17:48:57.083    01 Jan 2000 17:54:07.803      310.72001330    
01 Jan 2000 19:32:21.609    01 Jan 2000 19:43:39.766      678.15707495    
01 Jan 2000 21:18:22.620    01 Jan 2000 21:30:19.408      716.78771779    
01 Jan 2000 23:06:04.104    01 Jan 2000 23:16:03.354      599.25010063    
02 Jan 2000 00:54:32.390    02 Jan 2000 01:02:05.425      453.03419027    
02 Jan 2000 02:41:40.665    02 Jan 2000 02:49:49.542      488.87766351    
02 Jan 2000 04:27:27.437    02 Jan 2000 04:38:09.298      641.86051878    
02 Jan 2000 06:13:23.793    02 Jan 2000 06:25:14.516      710.72357660    
02 Jan 2000 08:00:43.262    02 Jan 2000 08:10:30.332      587.07015796    
02 Jan 2000 18:46:42.286    02 Jan 2000 18:56:36.696      594.41023866    
02 Jan 2000 20:31:56.141    02 Jan 2000 20:44:01.217      725.07544725    
02 Jan 2000 22:19:00.293    02 Jan 2000 22:29:59.257      658.96426766    
03 Jan 2000 00:07:22.191    03 Jan 2000 00:15:43.322      501.13075756    
03 Jan 2000 01:55:15.378    03 Jan 2000 02:02:42.336      446.95801749    
03 Jan 2000 03:41:22.981    03 Jan 2000 03:51:05.672      582.69077459    
03 Jan 2000 05:27:06.654    03 Jan 2000 05:38:47.467      700.81300718    
03 Jan 2000 07:13:42.691    03 Jan 2000 07:24:50.105      667.41413319    
03 Jan 2000 09:03:05.483    03 Jan 2000 09:08:18.773      313.29010535    


Number of events : 18


Observer: RR
Start Time (UTC)            Stop Time (UTC)               Duration (s)         
01 Jan 2000 16:00:14.532    01 Jan 2000 16:07:59.678      465.14586266    
01 Jan 2000 17:45:09.834    01 Jan 2000 17:56:40.922      691.08830384    
01 Jan 2000 19:31:22.750    01 Jan 2000 19:43:14.532      711.78161125    
01 Jan 2000 21:19:43.717    01 Jan 2000 21:27:56.988      493.27104801    
02 Jan 2000 04:32:48.215    02 Jan 2000 04:37:07.418      259.20270510    
02 Jan 2000 06:16:17.304    02 Jan 2000 06:27:03.627      646.32329224    
02 Jan 2000 08:02:07.499    02 Jan 2000 08:13:55.024      707.52483867    
02 Jan 2000 09:49:54.110    02 Jan 2000 09:59:16.275      562.16474713    
02 Jan 2000 11:40:35.777    02 Jan 2000 11:43:01.257      145.48026854    
02 Jan 2000 15:14:51.480    02 Jan 2000 15:19:54.361      302.88123692    
02 Jan 2000 16:59:14.467    02 Jan 2000 17:09:41.022      626.55418207    
02 Jan 2000 18:44:53.354    02 Jan 2000 18:57:01.470      728.11577286    
02 Jan 2000 20:32:12.882    02 Jan 2000 20:42:30.005      617.12332395    
03 Jan 2000 05:30:39.128    03 Jan 2000 05:39:51.018      551.88980884    
03 Jan 2000 07:15:45.739    03 Jan 2000 07:27:34.977      709.23822928    
03 Jan 2000 09:02:42.820    03 Jan 2000 09:13:27.332      644.51210147    
03 Jan 2000 10:51:57.110    03 Jan 2000 10:58:04.578      367.46853779    


Number of events : 17


Observer: RS
Start Time (UTC)            Stop Time (UTC)               Duration (s)         
01 Jan 2000 21:25:08.570    01 Jan 2000 21:34:47.189      578.61944031    
01 Jan 2000 23:10:14.431    01 Jan 2000 23:21:32.521      678.08976931    
02 Jan 2000 00:56:13.828    02 Jan 2000 01:07:43.604      689.77569529    
02 Jan 2000 02:42:36.468    02 Jan 2000 02:53:25.721      649.25316438    
02 Jan 2000 04:29:57.016    02 Jan 2000 04:37:45.269      468.25380226    
02 Jan 2000 20:39:52.241    02 Jan 2000 20:47:48.147      475.90557409    
02 Jan 2000 22:24:13.223    02 Jan 2000 22:35:08.184      654.96155476    
03 Jan 2000 00:09:57.785    03 Jan 2000 00:21:28.644      690.85895831    
03 Jan 2000 01:56:11.410    03 Jan 2000 02:07:25.394      673.98322821    
03 Jan 2000 03:42:58.009    03 Jan 2000 03:52:29.386      571.37698971    


Number of events : 10


Observer: SC
Start Time (UTC)            Stop Time (UTC)               Duration (s)         
01 Jan 2000 19:41:31.214    01 Jan 2000 19:47:30.513      359.29956303    
01 Jan 2000 21:25:00.289    01 Jan 2000 21:35:45.363      645.07426084    
01 Jan 2000 23:10:35.583    01 Jan 2000 23:22:19.824      704.24112647    
02 Jan 2000 00:56:48.925    02 Jan 2000 01:08:35.585      706.65970179    
02 Jan 2000 02:43:15.140    02 Jan 2000 02:54:28.887      673.74697421    
02 Jan 2000 04:30:29.465    02 Jan 2000 04:39:05.902      516.43699275    
02 Jan 2000 20:39:22.263    02 Jan 2000 20:49:01.677      579.41445083    
02 Jan 2000 22:24:25.047    02 Jan 2000 22:35:57.122      692.07463047    
03 Jan 2000 00:10:28.775    03 Jan 2000 00:22:17.613      708.83780775    
03 Jan 2000 01:56:49.655    03 Jan 2000 02:08:23.656      694.00112625    
03 Jan 2000 03:43:34.850    03 Jan 2000 03:53:41.344      606.49464084    
03 Jan 2000 05:33:16.028    03 Jan 2000 05:35:39.468      143.44056268    


Number of events : 12


Observer: SE
Start Time (UTC)            Stop Time (UTC)               Duration (s)         
01 Jan 2000 16:10:59.740    01 Jan 2000 16:14:14.272      194.53183342    
01 Jan 2000 17:53:32.266    01 Jan 2000 18:04:33.703      661.43687326    
01 Jan 2000 19:39:20.739    01 Jan 2000 19:51:22.447      721.70780055    
01 Jan 2000 21:26:44.812    01 Jan 2000 21:37:18.558      633.74557304    
01 Jan 2000 23:14:45.267    01 Jan 2000 23:23:36.543      531.27589021    
02 Jan 2000 01:01:44.100    02 Jan 2000 01:11:11.482      567.38218357    
02 Jan 2000 02:47:43.002    02 Jan 2000 02:59:01.302      678.30082354    
02 Jan 2000 04:33:56.606    02 Jan 2000 04:45:38.357      701.75095692    
02 Jan 2000 06:21:50.715    02 Jan 2000 06:30:17.167      506.45242170    
02 Jan 2000 17:08:00.482    02 Jan 2000 17:17:24.748      564.26552029    
02 Jan 2000 18:52:59.115    02 Jan 2000 19:05:00.741      721.62642935    
02 Jan 2000 20:39:49.284    02 Jan 2000 20:51:08.811      679.52684850    
02 Jan 2000 22:27:46.527    02 Jan 2000 22:37:08.743      562.21615502    
03 Jan 2000 00:15:18.358    03 Jan 2000 00:24:12.566      534.20824864    
03 Jan 2000 02:01:32.885    03 Jan 2000 02:12:09.823      636.93763353    
03 Jan 2000 03:47:31.832    03 Jan 2000 03:59:22.315      710.48336435    
03 Jan 2000 05:34:31.628    03 Jan 2000 05:44:55.313      623.68478221    


Number of events : 17


Observer: SP
Start Time (UTC)            Stop Time (UTC)               Duration (s)         
01 Jan 2000 19:39:51.327    01 Jan 2000 19:49:01.550      550.22275737    
01 Jan 2000 21:24:38.551    01 Jan 2000 21:36:19.742      701.19083938    
01 Jan 2000 23:10:49.082    01 Jan 2000 23:22:47.243      718.16145211    
02 Jan 2000 00:57:20.630    02 Jan 2000 01:09:14.906      714.27616370    
02 Jan 2000 02:43:48.582    02 Jan 2000 02:55:32.004      703.42283008    
02 Jan 2000 04:30:46.137    02 Jan 2000 04:40:45.241      599.10378938    
02 Jan 2000 18:55:04.677    02 Jan 2000 19:01:24.025      379.34837176    
02 Jan 2000 20:38:39.824    02 Jan 2000 20:49:47.237      667.41360010    
02 Jan 2000 22:24:26.584    02 Jan 2000 22:36:24.633      718.04852147    
03 Jan 2000 00:10:55.294    03 Jan 2000 00:22:50.349      715.05535160    
03 Jan 2000 01:57:24.209    03 Jan 2000 02:09:16.277      712.06806174    
03 Jan 2000 03:44:01.673    03 Jan 2000 03:55:03.328      661.65525117    
03 Jan 2000 05:32:16.312    03 Jan 2000 05:38:45.437      389.12447701    


Number of events : 13


Observer: TO
Start Time (UTC)            Stop Time (UTC)               Duration (s)         
01 Jan 2000 17:51:16.049    01 Jan 2000 18:00:41.473      565.42370558    
01 Jan 2000 19:36:15.784    01 Jan 2000 19:48:17.900      722.11642273    
01 Jan 2000 21:23:07.706    01 Jan 2000 21:34:24.191      676.48475859    
01 Jan 2000 23:11:11.443    01 Jan 2000 23:20:18.801      547.35811036    
02 Jan 2000 00:58:51.771    02 Jan 2000 01:07:19.161      507.38956961    
02 Jan 2000 02:45:06.362    02 Jan 2000 02:55:23.989      617.62715313    
02 Jan 2000 04:31:00.074    02 Jan 2000 04:42:47.951      707.87753396    
02 Jan 2000 06:17:49.012    02 Jan 2000 06:28:34.145      645.13273373    
02 Jan 2000 08:08:22.975    02 Jan 2000 08:10:52.327      149.35161931    
02 Jan 2000 17:06:22.004    02 Jan 2000 17:12:46.499      384.49440821    
02 Jan 2000 18:50:11.064    02 Jan 2000 19:01:43.067      692.00304032    
02 Jan 2000 20:36:22.627    02 Jan 2000 20:48:14.098      711.47066978    
02 Jan 2000 22:24:05.026    02 Jan 2000 22:34:04.568      599.54178458    
03 Jan 2000 00:12:09.210    03 Jan 2000 00:20:30.380      501.17025330    
03 Jan 2000 01:58:54.860    03 Jan 2000 02:08:20.457      565.59637802    
03 Jan 2000 03:44:47.107    03 Jan 2000 03:56:11.427      684.31993537    
03 Jan 2000 05:31:04.775    03 Jan 2000 05:42:40.367      695.59215942    
03 Jan 2000 07:19:17.426    03 Jan 2000 07:27:04.361      466.93484411    


Number of events : 18


