python_scritps/data/SCD2Contact.txt

Target: SCD2

Observer: AC
Start Time (UTC)            Stop Time (UTC)               Duration (s)         
01 Jan 2000 19:31:53.643    01 Jan 2000 19:42:24.402      630.75901021    
01 Jan 2000 21:17:24.654    01 Jan 2000 21:29:29.671      725.01689546    
01 Jan 2000 23:04:39.383    01 Jan 2000 23:15:25.754      646.37122436    
02 Jan 2000 00:52:51.283    02 Jan 2000 01:01:27.016      515.73325832    
02 Jan 2000 02:40:13.266    02 Jan 2000 02:48:48.823      515.55696678    
02 Jan 2000 04:26:14.604    02 Jan 2000 04:36:56.143      641.53916761    
02 Jan 2000 06:12:12.708    02 Jan 2000 06:24:03.665      710.95667639    
02 Jan 2000 07:59:23.791    02 Jan 2000 08:09:25.849      602.05745408    
02 Jan 2000 18:46:32.902    02 Jan 2000 18:55:00.789      507.88668237    
02 Jan 2000 20:31:09.233    02 Jan 2000 20:43:03.635      714.40240711    
02 Jan 2000 22:17:46.011    02 Jan 2000 22:29:17.928      691.91715703    
03 Jan 2000 00:05:44.718    03 Jan 2000 00:15:07.698      562.97978276    
03 Jan 2000 01:53:39.860    03 Jan 2000 02:01:51.650      491.79042683    
03 Jan 2000 03:40:06.041    03 Jan 2000 03:49:54.959      588.91810830    
03 Jan 2000 05:25:56.148    03 Jan 2000 05:37:34.809      698.66126116    
03 Jan 2000 07:12:27.852    03 Jan 2000 07:23:42.834      674.98253190    
03 Jan 2000 09:01:30.662    03 Jan 2000 09:07:23.939      353.27715995    
03 Jan 2000 18:02:11.345    03 Jan 2000 18:06:28.443      257.09781528    
03 Jan 2000 19:45:11.910    03 Jan 2000 19:56:21.677      669.76651809    
03 Jan 2000 21:31:06.380    03 Jan 2000 21:43:06.098      719.71784077    
03 Jan 2000 23:18:38.179    03 Jan 2000 23:28:57.154      618.97501753    
04 Jan 2000 01:06:49.685    04 Jan 2000 01:15:09.564      499.87871402    
04 Jan 2000 02:53:51.970    04 Jan 2000 03:02:49.021      537.05022553    
04 Jan 2000 04:39:46.121    04 Jan 2000 04:50:50.935      664.81419381    
04 Jan 2000 06:25:52.565    04 Jan 2000 06:37:39.601      707.03620976    
04 Jan 2000 08:13:31.210    04 Jan 2000 08:22:34.901      543.69133754    
04 Jan 2000 18:59:36.464    04 Jan 2000 19:09:15.679      579.21535905    
04 Jan 2000 20:44:42.460    04 Jan 2000 20:56:45.999      723.53838589    
04 Jan 2000 22:31:39.070    04 Jan 2000 22:42:49.676      670.60544780    
05 Jan 2000 00:19:46.561    05 Jan 2000 00:28:43.563      537.00208972    
05 Jan 2000 02:07:26.405    05 Jan 2000 02:15:46.625      500.21988598    
05 Jan 2000 03:53:38.263    05 Jan 2000 04:03:54.542      616.27916519    
05 Jan 2000 05:39:31.003    05 Jan 2000 05:51:18.969      707.96521391    
05 Jan 2000 07:26:20.590    05 Jan 2000 07:37:04.605      644.01442985    
05 Jan 2000 09:16:59.723    05 Jan 2000 09:19:19.082      139.35899913    
05 Jan 2000 18:14:35.942    05 Jan 2000 18:21:27.781      411.83824532    
05 Jan 2000 19:58:35.692    05 Jan 2000 20:10:12.889      697.19709030    
05 Jan 2000 21:44:52.151    05 Jan 2000 21:56:40.408      708.25677904    
05 Jan 2000 23:32:38.928    05 Jan 2000 23:42:29.325      590.39707237    
06 Jan 2000 01:20:44.681    06 Jan 2000 01:28:56.336      491.65564677    
06 Jan 2000 03:07:27.706    06 Jan 2000 03:16:50.117      562.41079444    
06 Jan 2000 04:53:18.203    06 Jan 2000 05:04:42.479      684.27551610    
06 Jan 2000 06:39:35.920    06 Jan 2000 06:51:11.085      695.16460943    
06 Jan 2000 08:27:50.210    06 Jan 2000 08:35:34.313      464.10261401    


Number of events : 44


Observer: AL
Start Time (UTC)            Stop Time (UTC)               Duration (s)         
01 Jan 2000 16:09:53.932    01 Jan 2000 16:15:43.709      349.77764853    
01 Jan 2000 17:53:31.040    01 Jan 2000 18:04:56.602      685.56169934    
01 Jan 2000 19:39:37.408    01 Jan 2000 19:51:31.628      714.21953022    
01 Jan 2000 21:27:18.958    01 Jan 2000 21:37:19.494      600.53639169    
01 Jan 2000 23:15:32.561    01 Jan 2000 23:23:35.921      483.35983423    
02 Jan 2000 01:02:26.907    02 Jan 2000 01:11:24.180      537.27341130    
02 Jan 2000 02:48:17.133    02 Jan 2000 02:59:26.605      669.47149825    
02 Jan 2000 04:34:25.710    02 Jan 2000 04:46:10.404      704.69377942    
02 Jan 2000 06:22:13.602    02 Jan 2000 06:30:57.921      524.31918760    
02 Jan 2000 17:07:49.014    02 Jan 2000 17:17:57.858      608.84382154    
02 Jan 2000 18:53:09.036    02 Jan 2000 19:05:14.336      725.30021154    
02 Jan 2000 20:40:16.355    02 Jan 2000 20:51:12.634      656.27865874    
02 Jan 2000 22:28:30.171    02 Jan 2000 22:37:07.180      517.00963065    
03 Jan 2000 00:16:04.701    03 Jan 2000 00:24:18.813      494.11169139    
03 Jan 2000 02:02:10.017    03 Jan 2000 02:12:31.031      621.01352583    
03 Jan 2000 03:48:02.645    03 Jan 2000 03:59:52.004      709.35948315    
03 Jan 2000 05:34:57.962    03 Jan 2000 05:45:31.425      633.46355888    
03 Jan 2000 16:22:36.187    03 Jan 2000 16:30:24.043      467.85698725    
03 Jan 2000 18:06:57.500    03 Jan 2000 18:18:45.187      707.68711808    
03 Jan 2000 19:53:25.359    03 Jan 2000 20:05:04.863      699.50383950    
03 Jan 2000 21:41:21.081    03 Jan 2000 21:50:51.754      570.67350391    
03 Jan 2000 23:29:26.342    03 Jan 2000 23:37:24.584      478.24176484    
04 Jan 2000 01:16:01.282    04 Jan 2000 01:25:26.142      564.86002898    
04 Jan 2000 03:01:49.206    04 Jan 2000 03:13:17.401      688.19474996    
04 Jan 2000 04:48:10.186    04 Jan 2000 04:59:40.651      690.46427943    
04 Jan 2000 06:36:36.804    04 Jan 2000 06:43:54.098      437.29486959    
04 Jan 2000 15:38:56.880    04 Jan 2000 15:41:05.778      128.89827333    
04 Jan 2000 17:21:04.602    04 Jan 2000 17:31:58.462      653.86019312    
04 Jan 2000 19:06:48.940    04 Jan 2000 19:18:51.836      722.89537332    
04 Jan 2000 20:54:14.453    04 Jan 2000 21:04:43.479      629.02613104    
04 Jan 2000 22:42:30.783    04 Jan 2000 22:50:47.282      496.49978131    
05 Jan 2000 00:29:45.222    05 Jan 2000 00:38:18.669      513.44686708    
05 Jan 2000 02:15:41.061    05 Jan 2000 02:26:28.220      647.15864874    
05 Jan 2000 04:01:40.393    05 Jan 2000 04:13:30.986      710.59362357    
05 Jan 2000 05:48:59.422    05 Jan 2000 05:58:45.673      586.25085040    
05 Jan 2000 16:35:35.062    05 Jan 2000 16:44:44.951      549.88847910    
05 Jan 2000 18:20:28.710    05 Jan 2000 18:32:29.304      720.59460314    
05 Jan 2000 20:07:17.076    05 Jan 2000 20:18:36.746      679.66993921    
05 Jan 2000 21:55:23.880    05 Jan 2000 22:04:25.838      541.95737302    
05 Jan 2000 23:43:15.578    05 Jan 2000 23:51:17.721      482.14324205    
06 Jan 2000 01:29:33.790    06 Jan 2000 01:39:27.396      593.60582490    
06 Jan 2000 03:15:22.640    06 Jan 2000 03:27:04.431      701.79076446    
06 Jan 2000 05:01:59.230    06 Jan 2000 05:13:06.089      666.85875499    
06 Jan 2000 06:51:22.626    06 Jan 2000 06:56:30.500      307.87402473    


Number of events : 44


Observer: AM
Start Time (UTC)            Stop Time (UTC)               Duration (s)         
01 Jan 2000 17:46:51.336    01 Jan 2000 17:56:52.031      600.69578468    
01 Jan 2000 19:32:13.113    01 Jan 2000 19:44:19.878      726.76517229    
01 Jan 2000 21:19:25.766    01 Jan 2000 21:30:03.309      637.54289107    
01 Jan 2000 23:08:58.198    01 Jan 2000 23:14:33.417      335.21903898    
02 Jan 2000 02:46:17.779    02 Jan 2000 02:48:12.791      115.01174258    
02 Jan 2000 04:29:54.640    02 Jan 2000 04:39:04.431      549.79184760    
02 Jan 2000 06:15:12.383    02 Jan 2000 06:26:56.455      704.07196217    
02 Jan 2000 08:01:58.238    02 Jan 2000 08:12:51.664      653.42576264    
02 Jan 2000 09:51:40.750    02 Jan 2000 09:56:31.322      290.57193623    
02 Jan 2000 17:01:28.968    02 Jan 2000 17:09:14.553      465.58513117    
02 Jan 2000 18:46:02.601    02 Jan 2000 18:57:47.907      705.30543246    
02 Jan 2000 20:32:29.339    02 Jan 2000 20:44:06.313      696.97464129    
02 Jan 2000 22:21:00.286    02 Jan 2000 22:29:06.113      485.82736101    
03 Jan 2000 03:44:18.051    03 Jan 2000 03:51:26.622      428.57186162    
03 Jan 2000 05:29:07.786    03 Jan 2000 05:40:14.355      666.56913551    
03 Jan 2000 07:15:13.377    03 Jan 2000 07:26:53.347      699.96940100    
03 Jan 2000 09:03:23.055    03 Jan 2000 09:11:40.934      497.87879497    
03 Jan 2000 16:17:01.932    03 Jan 2000 16:20:27.282      205.35067435    
03 Jan 2000 18:00:08.843    03 Jan 2000 18:10:55.717      646.87366141    
03 Jan 2000 19:45:52.467    03 Jan 2000 19:57:57.307      724.84082426    
03 Jan 2000 21:33:30.062    03 Jan 2000 21:43:25.229      595.16750547    
03 Jan 2000 23:23:41.458    03 Jan 2000 23:27:33.818      232.35992423    
04 Jan 2000 02:58:59.490    04 Jan 2000 03:03:16.425      256.93445146    
04 Jan 2000 04:43:14.657    04 Jan 2000 04:53:12.036      597.37936986    
04 Jan 2000 06:28:47.263    04 Jan 2000 06:40:38.258      710.99534137    
04 Jan 2000 08:15:57.406    04 Jan 2000 08:26:11.714      614.30825077    
04 Jan 2000 17:14:33.948    04 Jan 2000 17:23:36.572      542.62334174    
04 Jan 2000 18:59:33.394    04 Jan 2000 19:11:33.887      720.49315057    
04 Jan 2000 20:46:22.917    04 Jan 2000 20:57:33.729      670.81255132    
04 Jan 2000 22:35:23.590    04 Jan 2000 22:42:19.306      415.71544844    
05 Jan 2000 03:57:32.197    05 Jan 2000 04:05:47.050      494.85333549    
05 Jan 2000 05:42:36.126    05 Jan 2000 05:54:05.638      689.51112408    
05 Jan 2000 07:29:01.023    05 Jan 2000 07:40:22.148      681.12425138    
05 Jan 2000 09:17:50.612    05 Jan 2000 09:24:41.088      410.47572599    
05 Jan 2000 16:29:29.281    05 Jan 2000 16:35:34.724      365.44278811    
05 Jan 2000 18:13:31.093    05 Jan 2000 18:24:52.578      681.48424585    
05 Jan 2000 19:59:36.382    05 Jan 2000 20:11:31.050      714.66800552    
05 Jan 2000 21:47:40.266    05 Jan 2000 21:56:44.466      544.19986048    
05 Jan 2000 23:39:08.151    05 Jan 2000 23:39:54.074      45.922766277    
06 Jan 2000 03:12:02.621    06 Jan 2000 03:17:55.169      352.54796077    
06 Jan 2000 04:56:37.378    06 Jan 2000 05:07:13.836      636.45853295    
06 Jan 2000 06:42:25.973    06 Jan 2000 06:54:15.571      709.59782959    
06 Jan 2000 08:30:03.947    06 Jan 2000 08:39:26.687      562.74011994    


Number of events : 43


Observer: AP
Start Time (UTC)            Stop Time (UTC)               Duration (s)         
01 Jan 2000 16:03:08.315    01 Jan 2000 16:11:18.948      490.63327376    
01 Jan 2000 17:47:58.608    01 Jan 2000 17:59:45.485      706.87711034    
01 Jan 2000 19:34:26.785    01 Jan 2000 19:46:02.013      695.22834783    
01 Jan 2000 21:23:12.163    01 Jan 2000 21:30:38.977      446.81415951    
02 Jan 2000 04:32:41.906    02 Jan 2000 04:42:03.736      561.82989115    
02 Jan 2000 06:17:56.733    02 Jan 2000 06:29:45.761      709.02759845    
02 Jan 2000 08:04:55.343    02 Jan 2000 08:15:33.178      637.83464165    
02 Jan 2000 09:54:42.885    02 Jan 2000 09:59:28.984      286.09970736    
02 Jan 2000 15:18:03.535    02 Jan 2000 15:23:04.404      300.86892606    
02 Jan 2000 17:02:01.822    02 Jan 2000 17:12:53.385      651.56270068    
02 Jan 2000 18:47:49.643    02 Jan 2000 18:59:54.784      725.14124257    
02 Jan 2000 20:35:31.319    02 Jan 2000 20:45:12.387      581.06802735    
03 Jan 2000 03:47:17.368    03 Jan 2000 03:54:21.638      424.26972273    
03 Jan 2000 05:31:50.526    03 Jan 2000 05:43:08.644      678.11743116    
03 Jan 2000 07:18:04.406    03 Jan 2000 07:29:36.606      692.19974672    
03 Jan 2000 09:06:28.144    03 Jan 2000 09:14:26.011      477.86687594    
03 Jan 2000 16:16:19.915    03 Jan 2000 16:25:36.890      556.97429739    
03 Jan 2000 18:01:30.092    03 Jan 2000 18:13:31.600      721.50817285    
03 Jan 2000 19:48:20.883    03 Jan 2000 19:59:27.575      666.69147348    
03 Jan 2000 21:37:48.028    03 Jan 2000 21:43:38.015      349.98617530    
04 Jan 2000 03:02:42.677    04 Jan 2000 03:05:34.544      171.86710050    
04 Jan 2000 04:45:59.163    04 Jan 2000 04:56:10.437      611.27352132    
04 Jan 2000 06:31:33.385    04 Jan 2000 06:43:25.208      711.82332264    
04 Jan 2000 08:18:57.650    04 Jan 2000 08:28:53.382      595.73228125    
04 Jan 2000 10:10:17.911    04 Jan 2000 10:11:34.653      76.741967699    
04 Jan 2000 15:30:57.636    04 Jan 2000 15:37:47.583      409.94696453    
04 Jan 2000 17:15:25.946    04 Jan 2000 17:26:50.068      684.12246580    
04 Jan 2000 19:01:33.640    04 Jan 2000 19:13:27.884      714.24451217    
04 Jan 2000 20:49:45.453    04 Jan 2000 20:58:25.797      520.34408469    
05 Jan 2000 04:00:23.963    05 Jan 2000 04:08:45.660      501.69625817    
05 Jan 2000 05:45:19.335    05 Jan 2000 05:56:57.396      698.06089100    
05 Jan 2000 07:31:55.050    05 Jan 2000 07:43:04.227      669.17668587    
05 Jan 2000 09:20:56.153    05 Jan 2000 09:27:30.514      394.36016798    
05 Jan 2000 14:46:37.976    05 Jan 2000 14:48:39.979      122.00364259    
05 Jan 2000 16:29:36.317    05 Jan 2000 16:39:46.625      610.30753915    
05 Jan 2000 18:15:05.514    05 Jan 2000 18:27:13.019      727.50472835    
05 Jan 2000 20:02:20.900    05 Jan 2000 20:12:49.361      628.46111292    
05 Jan 2000 21:52:47.949    05 Jan 2000 21:56:17.117      209.16880894    
06 Jan 2000 03:15:14.731    06 Jan 2000 03:20:41.057      326.32598126    
06 Jan 2000 04:59:20.480    06 Jan 2000 05:10:10.395      649.91515348    
06 Jan 2000 06:45:14.379    06 Jan 2000 06:57:00.457      706.07744975    
06 Jan 2000 08:33:07.020    06 Jan 2000 08:42:09.456      542.43581321    


Number of events : 42


Observer: BA
Start Time (UTC)            Stop Time (UTC)               Duration (s)         
01 Jan 2000 17:53:50.432    01 Jan 2000 18:04:04.476      614.04440784    
01 Jan 2000 19:39:10.992    01 Jan 2000 19:51:15.122      724.12950180    
01 Jan 2000 21:26:10.426    01 Jan 2000 21:37:22.964      672.53856036    
01 Jan 2000 23:13:50.948    01 Jan 2000 23:23:43.579      592.63134127    
02 Jan 2000 01:00:50.458    02 Jan 2000 01:11:02.486      612.02754466    
02 Jan 2000 02:46:59.901    02 Jan 2000 02:58:32.696      692.79511382    
02 Jan 2000 04:33:22.649    02 Jan 2000 04:44:55.767      693.11811141    
02 Jan 2000 06:21:33.615    02 Jan 2000 06:29:13.490      459.87507615    
02 Jan 2000 17:08:38.282    02 Jan 2000 17:16:36.174      477.89192735    
02 Jan 2000 18:52:59.321    02 Jan 2000 19:04:46.728      707.40773636    
02 Jan 2000 20:39:24.795    02 Jan 2000 20:51:09.224      704.42954673    
02 Jan 2000 22:26:58.464    02 Jan 2000 22:37:16.605      618.14106354    
03 Jan 2000 00:14:21.949    03 Jan 2000 00:24:11.799      589.84985553    
03 Jan 2000 02:00:45.625    03 Jan 2000 02:11:48.266      662.64096235    
03 Jan 2000 03:46:54.294    03 Jan 2000 03:58:44.994      710.70064151    
03 Jan 2000 05:34:04.779    03 Jan 2000 05:44:03.144      598.36537022    
03 Jan 2000 16:24:56.425    03 Jan 2000 16:27:29.264      152.83817441    
03 Jan 2000 18:07:06.045    03 Jan 2000 18:18:02.896      656.85137742    
03 Jan 2000 19:52:50.565    03 Jan 2000 20:04:53.150      722.58496243    
03 Jan 2000 21:40:04.165    03 Jan 2000 21:50:58.004      653.83951674    
03 Jan 2000 23:27:42.458    03 Jan 2000 23:37:28.855      586.39674863    
04 Jan 2000 01:14:28.870    04 Jan 2000 01:24:56.911      628.04179721    
04 Jan 2000 03:00:35.184    04 Jan 2000 03:12:18.689      703.50580086    
04 Jan 2000 04:47:09.961    04 Jan 2000 04:58:21.980      672.01881678    
04 Jan 2000 06:36:12.061    04 Jan 2000 06:41:52.777      340.71592879    
04 Jan 2000 17:21:36.674    04 Jan 2000 17:30:54.099      557.42537841    
04 Jan 2000 19:06:30.686    04 Jan 2000 19:18:30.177      719.49072126    
04 Jan 2000 20:53:14.277    04 Jan 2000 21:04:43.751      689.47424318    
04 Jan 2000 22:40:53.245    04 Jan 2000 22:50:56.574      603.32884504    
05 Jan 2000 00:28:05.248    05 Jan 2000 00:38:04.389      599.14134670    
05 Jan 2000 02:14:20.436    05 Jan 2000 02:25:39.507      679.07117209    
05 Jan 2000 04:00:34.721    05 Jan 2000 04:12:20.103      705.38218439    
05 Jan 2000 05:48:11.552    05 Jan 2000 05:57:10.634      539.08223554    
05 Jan 2000 16:36:50.203    05 Jan 2000 16:42:56.671      366.46807173    
05 Jan 2000 18:20:27.657    05 Jan 2000 18:31:55.056      687.39894420    
05 Jan 2000 20:06:33.833    05 Jan 2000 20:18:29.416      715.58313773    
05 Jan 2000 21:53:59.059    05 Jan 2000 22:04:34.166      635.10693284    
05 Jan 2000 23:41:31.411    05 Jan 2000 23:51:16.935      585.52389579    
06 Jan 2000 01:28:05.503    06 Jan 2000 01:38:51.027      645.52395759    
06 Jan 2000 03:14:11.583    06 Jan 2000 03:26:01.359      709.77634621    
06 Jan 2000 05:01:02.217    06 Jan 2000 05:11:42.947      640.73029457    
06 Jan 2000 06:52:02.330    06 Jan 2000 06:53:23.013      80.683030235    


Number of events : 42


Observer: CE
Start Time (UTC)            Stop Time (UTC)               Duration (s)         
01 Jan 2000 16:06:42.941    01 Jan 2000 16:15:45.856      542.91571593    
01 Jan 2000 17:51:41.445    01 Jan 2000 18:03:42.118      720.67231344    
01 Jan 2000 19:38:31.428    01 Jan 2000 19:49:42.214      670.78610997    
01 Jan 2000 21:27:27.699    01 Jan 2000 21:34:34.119      426.41998327    
02 Jan 2000 01:05:21.747    02 Jan 2000 01:07:23.544      121.79681630    
02 Jan 2000 02:49:15.329    02 Jan 2000 02:58:06.703      531.37429386    
02 Jan 2000 04:34:30.169    02 Jan 2000 04:46:08.684      698.51530949    
02 Jan 2000 06:21:06.175    02 Jan 2000 06:32:13.262      667.08770542    
02 Jan 2000 08:10:24.030    02 Jan 2000 08:16:08.477      344.44706489    
02 Jan 2000 15:21:40.700    02 Jan 2000 15:27:43.004      362.30369486    
02 Jan 2000 17:05:39.133    02 Jan 2000 17:17:01.287      682.15357937    
02 Jan 2000 18:51:44.788    02 Jan 2000 19:03:39.071      714.28319884    
02 Jan 2000 20:39:47.630    02 Jan 2000 20:48:55.316      547.68589694    
02 Jan 2000 22:30:25.068    02 Jan 2000 22:32:56.205      151.13664282    
03 Jan 2000 02:03:37.236    03 Jan 2000 02:10:26.665      409.42923009    
03 Jan 2000 03:48:27.606    03 Jan 2000 03:59:22.430      654.82415515    
03 Jan 2000 05:34:26.105    03 Jan 2000 05:46:11.411      705.30522563    
03 Jan 2000 07:22:20.583    03 Jan 2000 07:31:08.384      527.80105207    
03 Jan 2000 16:19:54.571    03 Jan 2000 16:29:57.395      602.82352504    
03 Jan 2000 18:05:16.625    03 Jan 2000 18:17:23.366      726.74051095    
03 Jan 2000 19:52:30.169    03 Jan 2000 20:03:07.289      637.11936534    
03 Jan 2000 21:41:55.583    03 Jan 2000 21:47:46.631      351.04811884    
04 Jan 2000 01:18:13.288    04 Jan 2000 01:22:18.573      245.28504806    
04 Jan 2000 03:02:35.390    04 Jan 2000 03:12:16.090      580.69936704    
04 Jan 2000 04:48:03.617    04 Jan 2000 04:59:52.525      708.90817770    
04 Jan 2000 06:35:02.380    04 Jan 2000 06:45:35.088      632.70820817    
04 Jan 2000 08:25:40.892    04 Jan 2000 08:28:24.811      163.91922474    
04 Jan 2000 15:34:33.174    04 Jan 2000 15:42:20.405      467.23046650    
04 Jan 2000 17:19:05.739    04 Jan 2000 17:30:52.017      706.27854156    
04 Jan 2000 19:05:33.573    04 Jan 2000 19:17:09.627      696.05461007    
04 Jan 2000 20:54:02.937    04 Jan 2000 21:02:13.339      490.40158403    
05 Jan 2000 02:16:52.426    05 Jan 2000 02:24:47.934      475.50830457    
05 Jan 2000 04:01:55.048    05 Jan 2000 04:13:15.829      680.78162129    
05 Jan 2000 05:48:11.481    05 Jan 2000 05:59:42.025      690.54423996    
05 Jan 2000 07:36:42.734    05 Jan 2000 07:44:11.765      449.03099678    
05 Jan 2000 14:50:10.276    05 Jan 2000 14:53:30.715      200.43851815    
05 Jan 2000 16:33:11.919    05 Jan 2000 16:44:00.660      648.74027646    
05 Jan 2000 18:18:56.228    05 Jan 2000 18:31:00.614      724.38558288    
05 Jan 2000 20:06:34.271    05 Jan 2000 20:16:29.907      595.63604988    
05 Jan 2000 21:56:31.690    05 Jan 2000 22:00:54.330      262.63995323    
06 Jan 2000 01:31:19.953    06 Jan 2000 01:36:55.339      335.38521565    
06 Jan 2000 03:15:57.799    06 Jan 2000 03:26:19.879      622.07940185    
06 Jan 2000 05:01:40.625    06 Jan 2000 05:13:31.801      711.17583727    
06 Jan 2000 06:49:05.485    06 Jan 2000 06:58:51.954      586.46900797    


Number of events : 44


Observer: ES
Start Time (UTC)            Stop Time (UTC)               Duration (s)         
01 Jan 2000 17:56:52.860    01 Jan 2000 18:02:11.766      318.90608022    
01 Jan 2000 19:40:03.585    01 Jan 2000 19:51:10.546      666.96100279    
01 Jan 2000 21:25:50.987    01 Jan 2000 21:37:51.970      720.98354786    
01 Jan 2000 23:12:33.508    01 Jan 2000 23:24:17.222      703.71403531    
02 Jan 2000 00:59:14.815    02 Jan 2000 01:10:58.964      704.14875780    
02 Jan 2000 02:45:41.101    02 Jan 2000 02:57:30.119      709.01752822    
02 Jan 2000 04:32:39.729    02 Jan 2000 04:42:49.922      610.19344206    
02 Jan 2000 18:54:27.000    02 Jan 2000 19:04:17.661      590.66072514    
02 Jan 2000 20:39:32.922    02 Jan 2000 20:51:28.075      715.15276985    
02 Jan 2000 22:26:01.009    02 Jan 2000 22:37:52.781      711.77269929    
03 Jan 2000 00:12:47.876    03 Jan 2000 00:24:27.855      699.97946274    
03 Jan 2000 01:59:17.686    03 Jan 2000 02:11:09.651      711.96543016    
03 Jan 2000 03:45:53.968    03 Jan 2000 03:57:06.098      672.12963518    
03 Jan 2000 05:34:14.383    03 Jan 2000 05:40:52.736      398.35323718    
03 Jan 2000 18:09:24.140    03 Jan 2000 18:16:51.438      447.29824302    
03 Jan 2000 19:53:27.579    03 Jan 2000 20:04:57.771      690.19241910    
03 Jan 2000 21:39:31.282    03 Jan 2000 21:51:30.635      719.35305510    
03 Jan 2000 23:26:17.434    03 Jan 2000 23:37:58.451      701.01695837    
04 Jan 2000 01:12:54.740    04 Jan 2000 01:24:42.000      707.26088384    
04 Jan 2000 02:59:21.912    04 Jan 2000 03:11:04.033      702.12137302    
04 Jan 2000 04:46:39.136    04 Jan 2000 04:55:59.721      560.58524296    
04 Jan 2000 19:07:39.594    04 Jan 2000 19:18:14.836      635.24198133    
04 Jan 2000 20:53:08.290    04 Jan 2000 21:05:08.230      719.94032623    
04 Jan 2000 22:39:44.923    04 Jan 2000 22:51:32.325      707.40207323    
05 Jan 2000 00:26:29.535    05 Jan 2000 00:38:11.123      701.58837859    
05 Jan 2000 02:12:56.825    05 Jan 2000 02:24:48.723      711.89752448    
05 Jan 2000 03:59:42.438    05 Jan 2000 04:10:28.139      645.70080737    
05 Jan 2000 05:49:09.590    05 Jan 2000 05:53:08.234      238.64318702    
05 Jan 2000 18:22:16.970    05 Jan 2000 18:31:08.631      531.66096060    
05 Jan 2000 20:06:55.990    05 Jan 2000 20:18:41.811      705.82032418    
05 Jan 2000 21:53:13.309    05 Jan 2000 22:05:09.252      715.94311082    
05 Jan 2000 23:40:00.804    05 Jan 2000 23:51:40.553      699.74883132    
06 Jan 2000 01:26:34.061    06 Jan 2000 01:38:24.214      710.15340455    
06 Jan 2000 03:13:04.483    06 Jan 2000 03:24:34.556      690.07291569    
06 Jan 2000 05:00:47.767    06 Jan 2000 05:09:00.278      492.51099473    


Number of events : 35


Observer: GO
Start Time (UTC)            Stop Time (UTC)               Duration (s)         
01 Jan 2000 17:54:33.439    01 Jan 2000 17:58:47.451      254.01148999    
01 Jan 2000 19:37:20.228    01 Jan 2000 19:48:25.175      664.94658692    
01 Jan 2000 21:23:08.034    01 Jan 2000 21:35:09.871      721.83673455    
01 Jan 2000 23:10:07.222    01 Jan 2000 23:21:27.451      680.22977638    
02 Jan 2000 00:57:11.785    02 Jan 2000 01:08:12.595      660.80996400    
02 Jan 2000 02:43:40.865    02 Jan 2000 02:55:19.001      698.13635359    
02 Jan 2000 04:30:04.945    02 Jan 2000 04:41:44.192      699.24775246    
02 Jan 2000 06:17:46.067    02 Jan 2000 06:26:21.724      515.65719538    
02 Jan 2000 18:51:46.964    02 Jan 2000 19:01:25.146      578.18200114    
02 Jan 2000 20:36:48.161    02 Jan 2000 20:48:46.671      718.51016306    
02 Jan 2000 22:23:26.062    02 Jan 2000 22:35:06.360      700.29801299    
03 Jan 2000 00:10:36.601    03 Jan 2000 00:21:36.896      660.29545952    
03 Jan 2000 01:57:19.987    03 Jan 2000 02:08:40.616      680.62938665    
03 Jan 2000 03:43:38.955    03 Jan 2000 03:55:30.259      711.30479045    
03 Jan 2000 05:30:34.782    03 Jan 2000 05:41:00.487      625.70514159    
03 Jan 2000 18:06:51.724    03 Jan 2000 18:13:44.737      413.01373023    
03 Jan 2000 19:50:43.276    03 Jan 2000 20:02:14.512      691.23598491    
03 Jan 2000 21:36:50.281    03 Jan 2000 21:48:47.408      717.12719022    
03 Jan 2000 23:23:56.176    03 Jan 2000 23:35:07.498      671.32207789    
04 Jan 2000 01:10:54.613    04 Jan 2000 01:22:00.057      665.44423182    
04 Jan 2000 02:57:18.306    04 Jan 2000 03:09:03.684      705.37774523    
04 Jan 2000 04:43:49.425    04 Jan 2000 04:55:12.849      683.42420056    
04 Jan 2000 06:32:07.600    04 Jan 2000 06:39:12.923      425.32349109    
04 Jan 2000 19:04:57.602    04 Jan 2000 19:15:26.506      628.90354445    
04 Jan 2000 20:50:24.126    04 Jan 2000 21:02:26.756      722.62933046    
04 Jan 2000 22:37:14.094    04 Jan 2000 22:48:44.121      690.02687704    
05 Jan 2000 00:24:22.786    05 Jan 2000 00:35:21.830      659.04364135    
05 Jan 2000 02:10:58.495    05 Jan 2000 02:22:28.192      689.69724885    
05 Jan 2000 03:57:18.694    05 Jan 2000 04:09:06.669      707.97538786    
05 Jan 2000 05:44:34.121    05 Jan 2000 05:54:12.541      578.42072257    
05 Jan 2000 18:19:39.700    05 Jan 2000 18:28:10.505      510.80485642    
05 Jan 2000 20:04:11.206    05 Jan 2000 20:15:59.846      708.64073611    
05 Jan 2000 21:50:35.013    05 Jan 2000 22:02:24.520      709.50643908    
05 Jan 2000 23:37:44.687    05 Jan 2000 23:48:49.124      664.43621482    
06 Jan 2000 01:24:35.748    06 Jan 2000 01:35:48.140      672.39184678    
06 Jan 2000 03:10:55.952    06 Jan 2000 03:22:46.064      710.11228220    
06 Jan 2000 04:57:37.601    06 Jan 2000 05:08:36.789      659.18745910    
06 Jan 2000 06:46:55.442    06 Jan 2000 06:51:39.405      283.96297332    


Number of events : 38


Observer: MA
Start Time (UTC)            Stop Time (UTC)               Duration (s)         
01 Jan 2000 16:05:16.316    01 Jan 2000 16:13:45.790      509.47370165    
01 Jan 2000 17:50:06.008    01 Jan 2000 18:02:00.087      714.07869790    
01 Jan 2000 19:36:44.017    01 Jan 2000 19:48:08.550      684.53273313    
01 Jan 2000 21:25:34.083    01 Jan 2000 21:32:54.677      440.59344227    
02 Jan 2000 02:48:49.827    02 Jan 2000 02:55:35.211      405.38346459    
02 Jan 2000 04:33:29.956    02 Jan 2000 04:44:32.356      662.39974176    
02 Jan 2000 06:19:32.583    02 Jan 2000 06:31:14.321      701.73838532    
02 Jan 2000 08:07:37.737    02 Jan 2000 08:16:07.577      509.84017208    
02 Jan 2000 15:20:20.239    02 Jan 2000 15:25:30.054      309.81517481    
02 Jan 2000 17:04:07.561    02 Jan 2000 17:15:13.241      665.68003446    
02 Jan 2000 18:50:02.363    02 Jan 2000 19:02:03.295      720.93153773    
02 Jan 2000 20:37:54.169    02 Jan 2000 20:47:20.839      566.67012874    
02 Jan 2000 22:29:21.535    02 Jan 2000 22:30:20.995      59.460505913    
03 Jan 2000 02:03:49.302    03 Jan 2000 02:07:06.499      197.19756340    
03 Jan 2000 03:47:39.067    03 Jan 2000 03:57:27.976      588.90884053    
03 Jan 2000 05:33:07.443    03 Jan 2000 05:44:58.124      710.68106998    
03 Jan 2000 07:20:14.747    03 Jan 2000 07:30:35.134      620.38678882    
03 Jan 2000 09:11:13.272    03 Jan 2000 09:13:16.729      123.45710892    
03 Jan 2000 16:18:26.290    03 Jan 2000 16:28:01.839      575.54846238    
03 Jan 2000 18:03:38.974    03 Jan 2000 18:15:43.824      724.85013446    
03 Jan 2000 19:50:40.368    03 Jan 2000 20:01:33.969      653.60173703    
03 Jan 2000 21:40:05.012    03 Jan 2000 21:46:01.792      356.77975863    
04 Jan 2000 03:02:00.556    04 Jan 2000 03:09:59.119      478.56324456    
04 Jan 2000 04:46:57.502    04 Jan 2000 04:58:24.358      686.85622970    
04 Jan 2000 06:33:19.715    04 Jan 2000 06:44:43.783      684.06795430    
04 Jan 2000 08:22:02.518    04 Jan 2000 08:29:10.804      428.28528257    
04 Jan 2000 15:33:08.590    04 Jan 2000 15:40:15.137      426.54742801    
04 Jan 2000 17:17:32.292    04 Jan 2000 17:29:07.202      694.90966180    
04 Jan 2000 19:03:48.613    04 Jan 2000 19:15:35.143      706.53049465    
04 Jan 2000 20:52:08.717    04 Jan 2000 21:00:36.997      508.27976136    
05 Jan 2000 02:16:39.900    05 Jan 2000 02:21:58.087      318.18690130    
05 Jan 2000 04:01:00.515    05 Jan 2000 04:11:30.960      630.44535803    
05 Jan 2000 05:46:45.651    05 Jan 2000 05:58:35.981      710.33022824    
05 Jan 2000 07:34:20.214    05 Jan 2000 07:43:51.457      571.24360838    
05 Jan 2000 14:49:15.644    05 Jan 2000 14:50:48.289      92.645771499    
05 Jan 2000 16:31:42.020    05 Jan 2000 16:42:09.108      627.08768696    
05 Jan 2000 18:17:16.214    05 Jan 2000 18:29:23.176      726.96215340    
05 Jan 2000 20:04:42.365    05 Jan 2000 20:14:56.347      613.98279739    
05 Jan 2000 21:54:49.518    05 Jan 2000 21:58:59.129      249.61039141    
06 Jan 2000 03:15:15.545    06 Jan 2000 03:24:15.060      539.51495580    
06 Jan 2000 05:00:28.356    06 Jan 2000 05:12:11.329      702.97203100    
06 Jan 2000 06:47:12.196    06 Jan 2000 06:58:09.057      656.86103557    
06 Jan 2000 08:36:44.240    06 Jan 2000 08:42:00.970      316.72905899    


Number of events : 43


Observer: MG
Start Time (UTC)            Stop Time (UTC)               Duration (s)         
01 Jan 2000 17:56:53.921    01 Jan 2000 18:00:12.365      198.44454102    
01 Jan 2000 19:39:13.644    01 Jan 2000 19:50:04.652      651.00812714    
01 Jan 2000 21:24:51.402    01 Jan 2000 21:36:52.510      721.10805747    
01 Jan 2000 23:11:32.707    01 Jan 2000 23:23:16.446      703.73849329    
02 Jan 2000 00:58:18.035    02 Jan 2000 01:09:57.534      699.49894395    
02 Jan 2000 02:44:44.645    02 Jan 2000 02:56:36.463      711.81805964    
02 Jan 2000 04:31:31.422    02 Jan 2000 04:42:14.691      643.26825229    
02 Jan 2000 06:21:11.291    02 Jan 2000 06:24:43.743      212.45168536    
02 Jan 2000 18:53:44.514    02 Jan 2000 19:03:04.315      559.80017348    
02 Jan 2000 20:38:36.124    02 Jan 2000 20:50:27.408      711.28417191    
02 Jan 2000 22:24:59.727    02 Jan 2000 22:36:52.987      713.26003532    
03 Jan 2000 00:11:49.397    03 Jan 2000 00:23:25.971      696.57362946    
03 Jan 2000 01:58:22.080    03 Jan 2000 02:10:11.711      709.63126050    
03 Jan 2000 03:44:52.621    03 Jan 2000 03:56:21.886      689.26487026    
03 Jan 2000 05:32:39.912    03 Jan 2000 05:40:44.335      484.42312715    
03 Jan 2000 18:08:57.322    03 Jan 2000 18:15:21.153      383.83163646    
03 Jan 2000 19:52:34.917    03 Jan 2000 20:03:54.220      679.30226682    
03 Jan 2000 21:38:30.787    03 Jan 2000 21:50:31.299      720.51196333    
03 Jan 2000 23:25:17.269    03 Jan 2000 23:36:57.167      699.89769172    
04 Jan 2000 01:11:58.610    04 Jan 2000 01:23:41.344      702.73412493    
04 Jan 2000 02:58:24.368    04 Jan 2000 03:10:13.135      708.76681732    
04 Jan 2000 04:45:25.296    04 Jan 2000 04:55:30.607      605.31090342    
04 Jan 2000 19:06:52.875    04 Jan 2000 19:17:05.859      612.98363577    
04 Jan 2000 20:52:09.916    04 Jan 2000 21:04:08.351      718.43523576    
04 Jan 2000 22:38:43.740    04 Jan 2000 22:50:32.064      708.32332559    
05 Jan 2000 00:25:31.959    05 Jan 2000 00:37:09.305      697.34580705    
05 Jan 2000 02:12:00.985    05 Jan 2000 02:23:52.762      711.77678138    
05 Jan 2000 03:58:38.071    05 Jan 2000 04:09:48.103      670.03204578    
05 Jan 2000 05:47:05.934    05 Jan 2000 05:53:28.437      382.50244651    
05 Jan 2000 18:21:40.243    05 Jan 2000 18:29:49.079      488.83678570    
05 Jan 2000 20:06:01.052    05 Jan 2000 20:17:39.968      698.91655643    
05 Jan 2000 21:52:12.248    05 Jan 2000 22:04:09.782      717.53371116    
05 Jan 2000 23:39:01.449    05 Jan 2000 23:50:38.869      697.41965309    
06 Jan 2000 01:25:38.343    06 Jan 2000 01:37:24.735      706.39277789    
06 Jan 2000 03:12:05.320    06 Jan 2000 03:23:46.824      701.50446547    
06 Jan 2000 04:59:25.916    06 Jan 2000 05:08:39.407      553.49069692    


Number of events : 36


Observer: MS
Start Time (UTC)            Stop Time (UTC)               Duration (s)         
01 Jan 2000 19:37:33.314    01 Jan 2000 19:46:28.953      535.63929662    
01 Jan 2000 21:22:14.047    01 Jan 2000 21:34:00.248      706.20091015    
01 Jan 2000 23:08:31.607    01 Jan 2000 23:20:27.583      715.97602058    
02 Jan 2000 00:55:18.279    02 Jan 2000 01:06:59.091      700.81224778    
02 Jan 2000 02:41:50.891    02 Jan 2000 02:53:41.744      710.85261967    
02 Jan 2000 04:28:22.313    02 Jan 2000 04:39:49.251      686.93807741    
02 Jan 2000 06:16:11.091    02 Jan 2000 06:24:08.566      477.47437719    
02 Jan 2000 18:52:59.591    02 Jan 2000 18:58:32.733      333.14171199    
02 Jan 2000 20:36:16.137    02 Jan 2000 20:47:25.080      668.94280028    
02 Jan 2000 22:22:04.756    02 Jan 2000 22:34:05.634      720.87871539    
03 Jan 2000 00:08:46.932    03 Jan 2000 00:20:31.197      704.26489168    
03 Jan 2000 01:55:27.217    03 Jan 2000 02:07:12.638      705.42041279    
03 Jan 2000 03:41:53.697    03 Jan 2000 03:53:41.476      707.77891092    
03 Jan 2000 05:28:55.604    03 Jan 2000 05:38:56.438      600.83381608    
03 Jan 2000 19:50:38.500    03 Jan 2000 20:00:33.308      594.80873152    
03 Jan 2000 21:35:46.398    03 Jan 2000 21:47:41.861      715.46293998    
03 Jan 2000 23:22:14.740    03 Jan 2000 23:34:06.592      711.85170523    
04 Jan 2000 01:09:00.643    04 Jan 2000 01:20:41.849      701.20630714    
04 Jan 2000 02:55:29.957    04 Jan 2000 03:07:22.191      712.23428148    
04 Jan 2000 04:42:07.946    04 Jan 2000 04:53:14.984      667.03770758    
04 Jan 2000 06:30:38.301    04 Jan 2000 06:36:51.043      372.74276203    
04 Jan 2000 19:05:33.589    04 Jan 2000 19:13:09.428      455.83873338    
04 Jan 2000 20:49:40.511    04 Jan 2000 21:01:11.959      691.44734340    
04 Jan 2000 22:35:45.102    04 Jan 2000 22:47:44.316      719.21335749    
05 Jan 2000 00:22:30.648    05 Jan 2000 00:34:12.482      701.83401665    
05 Jan 2000 02:09:07.029    05 Jan 2000 02:20:55.382      708.35346052    
05 Jan 2000 03:55:34.833    05 Jan 2000 04:07:14.661      699.82775333    
05 Jan 2000 05:42:56.557    05 Jan 2000 05:52:04.554      547.99711847    
05 Jan 2000 18:22:51.270    05 Jan 2000 18:23:19.586      28.316100058    
05 Jan 2000 20:03:51.690    05 Jan 2000 20:14:29.832      638.14227269    
05 Jan 2000 21:49:21.946    05 Jan 2000 22:01:21.925      719.97959943    
05 Jan 2000 23:35:58.521    05 Jan 2000 23:47:46.223      707.70109501    
06 Jan 2000 01:22:42.098    06 Jan 2000 01:34:24.996      702.89739885    
06 Jan 2000 03:09:09.213    06 Jan 2000 03:21:00.705      711.49238341    
06 Jan 2000 04:55:57.238    06 Jan 2000 05:06:35.933      638.69571278    
06 Jan 2000 06:45:47.941    06 Jan 2000 06:48:52.233      184.29172036    


Number of events : 36


Observer: MT
Start Time (UTC)            Stop Time (UTC)               Duration (s)         
01 Jan 2000 19:35:41.715    01 Jan 2000 19:46:16.359      634.64451958    
01 Jan 2000 21:21:11.924    01 Jan 2000 21:33:15.265      723.34158079    
01 Jan 2000 23:08:08.105    01 Jan 2000 23:19:29.350      681.24495110    
02 Jan 2000 00:55:25.587    02 Jan 2000 01:06:05.266      639.67888865    
02 Jan 2000 02:42:05.029    02 Jan 2000 02:53:18.643      673.61405493    
02 Jan 2000 04:28:20.618    02 Jan 2000 04:40:11.785      711.16744678    
02 Jan 2000 06:15:19.718    02 Jan 2000 06:25:39.512      619.79460485    
02 Jan 2000 18:50:21.584    02 Jan 2000 18:59:01.023      519.43874013    
02 Jan 2000 20:34:57.479    02 Jan 2000 20:46:49.093      711.61321955    
02 Jan 2000 22:21:26.038    02 Jan 2000 22:33:11.234      705.19613506    
03 Jan 2000 00:08:44.092    03 Jan 2000 00:19:32.569      648.47719576    
03 Jan 2000 01:55:41.808    03 Jan 2000 02:06:34.576      652.76868985    
03 Jan 2000 03:42:00.696    03 Jan 2000 03:53:44.733      704.03666105    
03 Jan 2000 05:28:32.054    03 Jan 2000 05:39:53.394      681.33915385    
03 Jan 2000 07:17:00.887    03 Jan 2000 07:23:46.749      405.86228165    
03 Jan 2000 18:06:00.579    03 Jan 2000 18:10:41.345      280.76590193    
03 Jan 2000 19:49:00.030    03 Jan 2000 20:00:10.605      670.57447991    
03 Jan 2000 21:34:52.222    03 Jan 2000 21:46:53.244      721.02261015    
03 Jan 2000 23:21:58.654    03 Jan 2000 23:33:07.370      668.71580022    
04 Jan 2000 01:09:11.529    04 Jan 2000 01:19:52.230      640.70153228    
04 Jan 2000 02:55:42.492    04 Jan 2000 03:07:07.565      685.07333634    
04 Jan 2000 04:42:00.386    04 Jan 2000 04:53:48.059      707.67323042    
04 Jan 2000 06:29:20.923    04 Jan 2000 06:38:50.464      569.54118004    
04 Jan 2000 19:03:24.686    04 Jan 2000 19:13:11.347      586.66119317    
04 Jan 2000 20:48:30.445    04 Jan 2000 21:00:31.054      720.60836696    
04 Jan 2000 22:35:14.153    04 Jan 2000 22:46:47.697      693.54409010    
05 Jan 2000 00:22:33.425    05 Jan 2000 00:33:15.715      642.29046578    
05 Jan 2000 02:09:21.869    05 Jan 2000 02:20:24.561      662.69132544    
05 Jan 2000 03:55:37.850    05 Jan 2000 04:07:27.490      709.64050406    
05 Jan 2000 05:42:21.205    05 Jan 2000 05:53:16.651      655.44593720    
05 Jan 2000 07:31:57.758    05 Jan 2000 07:36:05.913      248.15506147    
05 Jan 2000 18:18:25.342    05 Jan 2000 18:25:33.264      427.92227879    
05 Jan 2000 20:02:23.924    05 Jan 2000 20:13:59.628      695.70373219    
05 Jan 2000 21:48:35.623    05 Jan 2000 22:00:30.154      714.53108304    
05 Jan 2000 23:35:49.443    05 Jan 2000 23:46:46.832      657.38904424    
06 Jan 2000 01:22:55.414    06 Jan 2000 01:33:40.732      645.31747297    
06 Jan 2000 03:09:19.323    06 Jan 2000 03:20:54.973      695.65094254    
06 Jan 2000 04:55:42.476    06 Jan 2000 05:07:20.428      697.95163478    
06 Jan 2000 06:43:31.821    06 Jan 2000 06:51:52.410      500.58849317    


Number of events : 39


Observer: PA
Start Time (UTC)            Stop Time (UTC)               Duration (s)         
01 Jan 2000 16:04:12.056    01 Jan 2000 16:12:04.607      472.55086235    
01 Jan 2000 17:48:52.483    01 Jan 2000 18:00:37.295      704.81245397    
01 Jan 2000 19:35:18.593    01 Jan 2000 19:46:55.994      697.40092519    
01 Jan 2000 21:23:55.460    01 Jan 2000 21:31:44.820      469.36012013    
02 Jan 2000 02:48:47.997    02 Jan 2000 02:53:05.514      257.51720894    
02 Jan 2000 04:32:45.274    02 Jan 2000 04:43:03.750      618.47519847    
02 Jan 2000 06:18:24.181    02 Jan 2000 06:30:15.553      711.37250250    
02 Jan 2000 08:05:51.414    02 Jan 2000 08:15:38.435      587.02108611    
02 Jan 2000 15:19:26.538    02 Jan 2000 15:23:32.448      245.91017354    
02 Jan 2000 17:02:57.752    02 Jan 2000 17:13:44.301      646.54887345    
02 Jan 2000 18:48:42.125    02 Jan 2000 19:00:47.517      725.39230833    
02 Jan 2000 20:36:20.461    02 Jan 2000 20:46:10.912      590.45138585    
02 Jan 2000 22:27:28.811    02 Jan 2000 22:29:18.335      109.52409287    
03 Jan 2000 03:47:04.677    03 Jan 2000 03:55:42.956      518.27944152    
03 Jan 2000 05:32:09.049    03 Jan 2000 05:43:48.591      699.54192425    
03 Jan 2000 07:18:47.079    03 Jan 2000 07:29:52.390      665.31043496    
03 Jan 2000 09:08:00.467    03 Jan 2000 09:14:02.462      361.99531731    
03 Jan 2000 16:17:19.961    03 Jan 2000 16:26:25.332      545.37082985    
03 Jan 2000 18:02:23.351    03 Jan 2000 18:14:23.685      720.33437616    
03 Jan 2000 19:49:12.165    03 Jan 2000 20:00:22.606      670.44125323    
03 Jan 2000 21:38:24.437    03 Jan 2000 21:44:51.381      386.94405074    
04 Jan 2000 03:01:42.225    04 Jan 2000 03:07:50.283      368.05834706    
04 Jan 2000 04:46:08.202    04 Jan 2000 04:57:02.720      654.51757112    
04 Jan 2000 06:32:05.565    04 Jan 2000 06:43:50.264      704.69951484    
04 Jan 2000 08:20:02.566    04 Jan 2000 08:28:51.884      529.31870880    
04 Jan 2000 15:32:07.330    04 Jan 2000 15:38:28.150      380.81965917    
04 Jan 2000 17:16:20.661    04 Jan 2000 17:27:41.535      680.87320165    
04 Jan 2000 19:02:25.807    04 Jan 2000 19:14:21.140      715.33372089    
04 Jan 2000 20:50:32.385    04 Jan 2000 20:59:27.292      534.90693569    
05 Jan 2000 02:17:42.301    05 Jan 2000 02:18:19.790      37.488380761    
05 Jan 2000 04:00:20.598    05 Jan 2000 04:09:54.803      574.20530965    
05 Jan 2000 05:45:42.362    05 Jan 2000 05:57:32.014      709.65272173    
05 Jan 2000 07:32:44.010    05 Jan 2000 07:43:14.972      630.96189554    
05 Jan 2000 09:22:59.515    05 Jan 2000 09:26:39.233      219.71797817    
05 Jan 2000 16:30:33.911    05 Jan 2000 16:40:36.644      602.73327740    
05 Jan 2000 18:15:58.330    05 Jan 2000 18:28:05.391      727.06070321    
05 Jan 2000 20:03:11.350    05 Jan 2000 20:13:45.870      634.51939233    
05 Jan 2000 21:53:07.333    05 Jan 2000 21:57:47.961      280.62821879    
06 Jan 2000 03:14:47.759    06 Jan 2000 03:22:19.781      452.02273774    
06 Jan 2000 04:59:34.498    06 Jan 2000 05:10:56.051      681.55343112    
06 Jan 2000 06:45:51.631    06 Jan 2000 06:57:20.855      689.22475877    
06 Jan 2000 08:34:23.359    06 Jan 2000 08:41:59.050      455.69054594    


Number of events : 42


Observer: PB
Start Time (UTC)            Stop Time (UTC)               Duration (s)         
01 Jan 2000 16:08:38.282    01 Jan 2000 16:16:45.701      487.41928936    
01 Jan 2000 17:53:10.932    01 Jan 2000 18:05:02.560      711.62830540    
01 Jan 2000 19:39:44.942    01 Jan 2000 19:51:16.784      691.84170922    
01 Jan 2000 21:28:01.145    01 Jan 2000 21:36:44.539      523.39449216    
01 Jan 2000 23:16:52.736    01 Jan 2000 23:22:43.859      351.12301502    
02 Jan 2000 01:03:35.807    02 Jan 2000 01:11:03.194      447.38705390    
02 Jan 2000 02:49:03.088    02 Jan 2000 02:59:40.890      637.80149489    
02 Jan 2000 04:34:55.957    02 Jan 2000 04:46:46.534      710.57713365    
02 Jan 2000 06:22:20.714    02 Jan 2000 06:32:00.356      579.64202359    
02 Jan 2000 15:24:21.556    02 Jan 2000 15:28:00.038      218.48273417    
02 Jan 2000 17:07:15.486    02 Jan 2000 17:18:16.499      661.01270631    
02 Jan 2000 18:53:05.467    02 Jan 2000 19:05:06.994      721.52765261    
02 Jan 2000 20:40:43.212    02 Jan 2000 20:50:46.252      603.03968667    
02 Jan 2000 22:29:37.723    02 Jan 2000 22:36:19.007      401.28375463    
03 Jan 2000 00:17:23.616    03 Jan 2000 00:23:40.624      377.00806592    
03 Jan 2000 02:03:03.886    03 Jan 2000 02:12:33.430      569.54418590    
03 Jan 2000 03:48:38.892    03 Jan 2000 04:00:20.180      701.28758876    
03 Jan 2000 05:35:17.232    03 Jan 2000 05:46:20.697      663.46437181    
03 Jan 2000 07:24:49.430    03 Jan 2000 07:29:48.511      299.08088349    
03 Jan 2000 16:21:41.373    03 Jan 2000 16:31:04.442      563.06902079    
03 Jan 2000 18:06:43.152    03 Jan 2000 18:18:46.190      723.03838169    
03 Jan 2000 19:53:38.952    03 Jan 2000 20:04:46.254      667.30122707    
03 Jan 2000 21:42:11.750    03 Jan 2000 21:50:12.180      480.42968611    
03 Jan 2000 23:30:49.023    03 Jan 2000 23:36:34.414      345.39057497    
04 Jan 2000 01:17:04.772    04 Jan 2000 01:25:13.716      488.94442819    
04 Jan 2000 03:02:31.680    04 Jan 2000 03:13:36.781      665.10123743    
04 Jan 2000 04:48:37.185    04 Jan 2000 05:00:20.847      703.66203618    
04 Jan 2000 06:36:33.247    04 Jan 2000 06:45:07.555      514.30797687    
04 Jan 2000 15:36:42.018    04 Jan 2000 15:43:08.097      386.07926904    
04 Jan 2000 17:20:38.360    04 Jan 2000 17:32:10.046      691.68555499    
04 Jan 2000 19:06:50.892    04 Jan 2000 19:18:40.647      709.75472310    
04 Jan 2000 20:54:48.817    04 Jan 2000 21:04:12.863      564.04536803    
04 Jan 2000 22:43:45.724    04 Jan 2000 22:49:56.129      370.40540295    
05 Jan 2000 00:30:59.375    05 Jan 2000 00:37:49.038      409.66339322    
05 Jan 2000 02:16:30.722    05 Jan 2000 02:26:36.982      606.25995782    
05 Jan 2000 04:02:13.623    05 Jan 2000 04:14:03.233      709.61005732    
05 Jan 2000 05:49:13.424    05 Jan 2000 05:59:40.768      627.34355021    
05 Jan 2000 16:34:52.730    05 Jan 2000 16:45:12.468      619.73834509    
05 Jan 2000 18:20:19.856    05 Jan 2000 18:32:25.905      726.04910735    
05 Jan 2000 20:07:37.151    05 Jan 2000 20:18:14.278      637.12743177    
05 Jan 2000 21:56:23.238    05 Jan 2000 22:03:41.682      438.44382515    
05 Jan 2000 23:44:37.610    05 Jan 2000 23:50:32.466      354.85562749    
06 Jan 2000 01:30:32.188    06 Jan 2000 01:39:22.865      530.67713818    
06 Jan 2000 03:16:01.882    06 Jan 2000 03:27:28.437      686.55589123    
06 Jan 2000 05:02:22.616    06 Jan 2000 05:13:50.622      688.00561179    
06 Jan 2000 06:50:58.823    06 Jan 2000 06:58:04.418      425.59519300    


Number of events : 46


Observer: PE
Start Time (UTC)            Stop Time (UTC)               Duration (s)         
01 Jan 2000 16:09:04.155    01 Jan 2000 16:16:35.090      450.93528733    
01 Jan 2000 17:53:21.827    01 Jan 2000 18:05:06.654      704.82754454    
01 Jan 2000 19:39:47.051    01 Jan 2000 19:51:27.553      700.50151062    
01 Jan 2000 21:27:50.661    01 Jan 2000 21:37:03.398      552.73765364    
01 Jan 2000 23:16:25.482    01 Jan 2000 23:23:12.330      406.84762979    
02 Jan 2000 01:03:13.128    02 Jan 2000 01:11:19.443      486.31437588    
02 Jan 2000 02:48:49.992    02 Jan 2000 02:59:42.208      652.21630587    
02 Jan 2000 04:34:49.579    02 Jan 2000 04:46:38.393      708.81345256    
02 Jan 2000 06:22:24.309    02 Jan 2000 06:31:41.381      557.07170810    
02 Jan 2000 15:25:55.308    02 Jan 2000 15:26:41.021      45.713531657    
02 Jan 2000 17:07:30.375    02 Jan 2000 17:18:16.935      646.55961193    
02 Jan 2000 18:53:11.210    02 Jan 2000 19:05:15.209      723.99948559    
02 Jan 2000 20:40:38.558    02 Jan 2000 20:51:01.419      622.86073939    
02 Jan 2000 22:29:16.495    02 Jan 2000 22:36:44.550      448.05559753    
03 Jan 2000 00:16:56.568    03 Jan 2000 00:24:04.130      427.56209322    
03 Jan 2000 02:02:47.517    03 Jan 2000 02:12:39.806      592.28963088    
03 Jan 2000 03:48:29.894    03 Jan 2000 04:00:15.493      705.59937260    
03 Jan 2000 05:35:15.694    03 Jan 2000 05:46:06.991      651.29766207    
03 Jan 2000 07:25:22.467    03 Jan 2000 07:29:00.524      218.05764501    
03 Jan 2000 16:22:02.171    03 Jan 2000 16:30:59.012      536.84048454    
03 Jan 2000 18:06:52.283    03 Jan 2000 18:18:51.774      719.49173275    
03 Jan 2000 19:53:39.005    03 Jan 2000 20:04:58.391      679.38566540    
03 Jan 2000 21:41:57.840    03 Jan 2000 21:50:33.205      515.36537879    
03 Jan 2000 23:30:20.438    03 Jan 2000 23:37:02.597      402.15956649    
04 Jan 2000 01:16:44.393    04 Jan 2000 01:25:26.350      521.95674347    
04 Jan 2000 03:02:20.036    04 Jan 2000 03:13:35.909      675.87284592    
04 Jan 2000 04:48:32.244    04 Jan 2000 05:00:10.957      698.71258575    
04 Jan 2000 06:36:41.051    04 Jan 2000 06:44:44.421      483.36997015    
04 Jan 2000 15:37:17.263    04 Jan 2000 15:42:47.912      330.64888517    
04 Jan 2000 17:20:51.102    04 Jan 2000 17:32:12.494      681.39237285    
04 Jan 2000 19:06:54.849    04 Jan 2000 19:18:50.145      715.29625567    
04 Jan 2000 20:54:41.364    04 Jan 2000 21:04:29.805      588.44088170    
04 Jan 2000 22:43:21.043    04 Jan 2000 22:50:23.580      422.53618443    
05 Jan 2000 00:30:34.421    05 Jan 2000 00:38:08.943      454.52180951    
05 Jan 2000 02:16:16.090    05 Jan 2000 02:26:40.658      624.56737807    
05 Jan 2000 04:02:05.935    05 Jan 2000 04:13:56.775      710.84091748    
05 Jan 2000 05:49:14.151    05 Jan 2000 05:59:24.692      610.54058047    
05 Jan 2000 16:35:10.137    05 Jan 2000 16:45:10.447      600.30994263    
05 Jan 2000 18:20:27.275    05 Jan 2000 18:32:32.854      725.57932263    
05 Jan 2000 20:07:34.940    05 Jan 2000 20:18:27.883      652.94357480    
05 Jan 2000 21:56:05.651    05 Jan 2000 22:04:05.012      479.36125528    
05 Jan 2000 23:44:09.205    05 Jan 2000 23:50:58.859      409.65368949    
06 Jan 2000 01:30:13.941    06 Jan 2000 01:39:32.169      558.22790562    
06 Jan 2000 03:15:51.602    06 Jan 2000 03:27:25.563      693.96107920    
06 Jan 2000 05:02:19.273    06 Jan 2000 05:13:38.891      679.61789483    
06 Jan 2000 06:51:13.760    06 Jan 2000 06:57:34.291      380.53118224    


Number of events : 46


Observer: PI
Start Time (UTC)            Stop Time (UTC)               Duration (s)         
01 Jan 2000 16:06:43.192    01 Jan 2000 16:13:42.954      419.76267648    
01 Jan 2000 17:50:56.431    01 Jan 2000 18:02:33.606      697.17541501    
01 Jan 2000 19:37:14.528    01 Jan 2000 19:48:59.681      705.15287532    
01 Jan 2000 21:25:26.660    01 Jan 2000 21:34:17.446      530.78569566    
01 Jan 2000 23:15:19.926    01 Jan 2000 23:19:10.920      230.99399231    
02 Jan 2000 01:02:59.875    02 Jan 2000 01:06:55.916      236.04014277    
02 Jan 2000 02:47:53.597    02 Jan 2000 02:56:43.479      529.88197301    
02 Jan 2000 04:33:13.200    02 Jan 2000 04:44:47.701      694.50100379    
02 Jan 2000 06:19:43.229    02 Jan 2000 06:30:58.305      675.07606829    
02 Jan 2000 08:08:47.474    02 Jan 2000 08:14:57.700      370.22679109    
02 Jan 2000 17:05:07.391    02 Jan 2000 17:15:37.743      630.35199578    
02 Jan 2000 18:50:41.194    02 Jan 2000 19:02:47.283      726.08959351    
02 Jan 2000 20:38:06.922    02 Jan 2000 20:48:26.739      619.81685911    
02 Jan 2000 22:27:26.140    02 Jan 2000 22:33:23.769      357.62907509    
03 Jan 2000 00:16:54.597    03 Jan 2000 00:19:14.357      139.75975479    
03 Jan 2000 02:02:06.862    03 Jan 2000 02:09:09.206      422.34476146    
03 Jan 2000 03:47:10.498    03 Jan 2000 03:57:59.275      648.77738336    
03 Jan 2000 05:33:06.470    03 Jan 2000 05:44:54.252      707.78218741    
03 Jan 2000 07:20:50.664    03 Jan 2000 07:29:55.771      545.10678827    
03 Jan 2000 16:19:40.625    03 Jan 2000 16:28:11.807      511.18151557    
03 Jan 2000 18:04:25.384    03 Jan 2000 18:16:21.048      715.66427130    
03 Jan 2000 19:51:05.887    03 Jan 2000 20:02:29.289      683.40188249    
03 Jan 2000 21:39:41.445    03 Jan 2000 21:47:38.469      477.02398358    
03 Jan 2000 23:29:43.063    03 Jan 2000 23:32:36.950      173.88697048    
04 Jan 2000 01:16:21.482    04 Jan 2000 01:21:20.923      299.44110395    
04 Jan 2000 03:01:15.999    04 Jan 2000 03:10:52.161      576.16207899    
04 Jan 2000 04:46:46.097    04 Jan 2000 04:58:32.835      706.73807531    
04 Jan 2000 06:33:37.347    04 Jan 2000 06:44:21.050      643.70338999    
04 Jan 2000 08:23:54.604    04 Jan 2000 08:27:20.960      206.35589861    
04 Jan 2000 15:34:58.152    04 Jan 2000 15:39:49.129      290.97658288    
04 Jan 2000 17:18:27.006    04 Jan 2000 17:29:36.662      669.65553310    
04 Jan 2000 19:04:23.409    04 Jan 2000 19:16:22.625      719.21626905    
04 Jan 2000 20:52:12.584    04 Jan 2000 21:01:50.275      577.69030383    
04 Jan 2000 22:41:50.967    04 Jan 2000 22:46:44.050      293.08321404    
05 Jan 2000 00:30:29.545    05 Jan 2000 00:33:29.299      179.75358678    
05 Jan 2000 02:15:27.285    05 Jan 2000 02:23:26.606      479.32108470    
05 Jan 2000 04:00:38.233    05 Jan 2000 04:11:53.678      675.44561906    
05 Jan 2000 05:46:50.307    05 Jan 2000 05:58:26.041      695.73315267    
05 Jan 2000 07:35:09.855    05 Jan 2000 07:42:59.825      469.96977157    
05 Jan 2000 16:32:47.980    05 Jan 2000 16:42:27.533      579.55274720    
05 Jan 2000 18:17:58.788    05 Jan 2000 18:30:03.859      725.07173071    
05 Jan 2000 20:05:02.022    05 Jan 2000 20:15:56.537      654.51519170    
05 Jan 2000 21:54:00.356    05 Jan 2000 22:00:58.726      418.37007125    
05 Jan 2000 23:43:56.505    05 Jan 2000 23:46:13.704      137.19932749    
06 Jan 2000 01:29:41.731    06 Jan 2000 01:35:44.710      362.97836839    
06 Jan 2000 03:14:39.888    06 Jan 2000 03:24:56.077      616.18880125    
06 Jan 2000 05:00:22.193    06 Jan 2000 05:12:13.416      711.22281386    
06 Jan 2000 06:47:38.106    06 Jan 2000 06:57:38.693      600.58786370    


Number of events : 48


Observer: PR
Start Time (UTC)            Stop Time (UTC)               Duration (s)         
01 Jan 2000 19:40:18.268    01 Jan 2000 19:47:46.494      448.22668768    
01 Jan 2000 21:24:22.567    01 Jan 2000 21:35:36.315      673.74857347    
01 Jan 2000 23:10:13.256    01 Jan 2000 23:22:08.291      715.03491600    
02 Jan 2000 00:56:35.963    02 Jan 2000 01:08:30.327      714.36414351    
02 Jan 2000 02:43:02.817    02 Jan 2000 02:54:38.597      695.78034488    
02 Jan 2000 04:30:02.172    02 Jan 2000 04:39:43.346      581.17403537    
02 Jan 2000 18:57:08.102    02 Jan 2000 18:58:35.029      86.926815519    
02 Jan 2000 20:38:35.864    02 Jan 2000 20:48:57.006      621.14248560    
02 Jan 2000 22:23:57.269    02 Jan 2000 22:35:45.495      708.22587182    
03 Jan 2000 00:10:12.943    03 Jan 2000 00:22:08.792      715.84944399    
03 Jan 2000 01:56:38.324    03 Jan 2000 02:08:26.372      708.04769058    
03 Jan 2000 03:43:16.734    03 Jan 2000 03:54:04.953      648.21826253    
03 Jan 2000 05:31:38.137    03 Jan 2000 05:37:33.412      355.27468042    
03 Jan 2000 19:53:12.580    03 Jan 2000 20:01:57.933      525.35288528    
03 Jan 2000 21:37:49.549    03 Jan 2000 21:49:19.483      689.93405731    
03 Jan 2000 23:23:50.915    03 Jan 2000 23:35:46.965      716.04952589    
04 Jan 2000 01:10:15.189    04 Jan 2000 01:22:08.286      713.09657847    
04 Jan 2000 02:56:44.150    04 Jan 2000 03:08:08.937      684.78719200    
04 Jan 2000 04:44:01.254    04 Jan 2000 04:52:50.125      528.87050256    
04 Jan 2000 19:08:36.272    04 Jan 2000 19:14:13.175      336.90301697    
04 Jan 2000 20:51:54.384    04 Jan 2000 21:02:46.204      651.81937676    
04 Jan 2000 22:37:32.125    04 Jan 2000 22:49:24.819      712.69409435    
05 Jan 2000 00:23:52.131    05 Jan 2000 00:35:47.349      715.21876539    
05 Jan 2000 02:10:17.977    05 Jan 2000 02:22:01.070      703.09281433    
05 Jan 2000 03:57:05.138    05 Jan 2000 04:07:24.241      619.10389244    
05 Jan 2000 05:46:48.052    05 Jan 2000 05:49:29.099      161.04706483    
05 Jan 2000 20:06:17.809    05 Jan 2000 20:15:58.801      580.99224509    
05 Jan 2000 21:51:19.734    05 Jan 2000 22:03:00.824      701.09011101    
05 Jan 2000 23:37:29.392    05 Jan 2000 23:49:25.581      716.18919176    
06 Jan 2000 01:23:54.412    06 Jan 2000 01:35:45.529      711.11724306    
06 Jan 2000 03:10:27.092    06 Jan 2000 03:21:36.253      669.16114425    
06 Jan 2000 04:58:09.890    06 Jan 2000 05:05:46.864      456.97399395    


Number of events : 32


Observer: RJ
Start Time (UTC)            Stop Time (UTC)               Duration (s)         
01 Jan 2000 19:40:12.213    01 Jan 2000 19:50:13.740      601.52785495    
01 Jan 2000 21:25:23.249    01 Jan 2000 21:37:14.974      711.72519999    
01 Jan 2000 23:11:44.195    01 Jan 2000 23:23:40.749      716.55442722    
02 Jan 2000 00:58:17.931    02 Jan 2000 01:10:11.216      713.28470012    
02 Jan 2000 02:44:46.210    02 Jan 2000 02:56:27.893      701.68285008    
02 Jan 2000 04:31:50.829    02 Jan 2000 04:41:33.063      582.23389685    
02 Jan 2000 18:55:01.522    02 Jan 2000 19:02:59.288      477.76592629    
02 Jan 2000 20:39:17.381    02 Jan 2000 20:50:46.325      688.94405816    
02 Jan 2000 22:25:18.704    02 Jan 2000 22:37:17.835      719.13149909    
03 Jan 2000 00:11:52.407    03 Jan 2000 00:23:45.533      713.12585216    
03 Jan 2000 01:58:21.394    03 Jan 2000 02:10:13.074      711.68025235    
03 Jan 2000 03:45:02.048    03 Jan 2000 03:55:55.598      653.55023547    
03 Jan 2000 05:33:40.384    03 Jan 2000 05:39:15.285      334.90135877    
03 Jan 2000 18:11:12.442    03 Jan 2000 18:14:22.003      189.56128636    
03 Jan 2000 19:53:26.940    03 Jan 2000 20:04:07.490      640.55037042    
03 Jan 2000 21:38:58.142    03 Jan 2000 21:50:54.956      716.81354307    
03 Jan 2000 23:25:25.460    03 Jan 2000 23:37:20.431      714.97092362    
04 Jan 2000 01:11:57.766    04 Jan 2000 01:23:51.294      713.52887627    
04 Jan 2000 02:58:27.905    04 Jan 2000 03:09:59.039      691.13411650    
04 Jan 2000 04:45:52.693    04 Jan 2000 04:54:38.623      525.93017074    
04 Jan 2000 19:07:59.203    04 Jan 2000 19:17:09.371      550.16862400    
04 Jan 2000 20:52:46.296    04 Jan 2000 21:04:29.276      702.98040672    
04 Jan 2000 22:38:58.781    04 Jan 2000 22:50:56.872      718.09100766    
05 Jan 2000 00:25:33.119    05 Jan 2000 00:37:26.147      713.02890005    
05 Jan 2000 02:12:01.178    05 Jan 2000 02:23:49.246      708.06846314    
05 Jan 2000 03:58:51.861    05 Jan 2000 04:09:14.618      622.75681595    
05 Jan 2000 05:49:25.315    05 Jan 2000 05:50:38.802      73.487342172    
05 Jan 2000 18:23:13.667    05 Jan 2000 18:29:29.639      375.97232200    
05 Jan 2000 20:06:47.368    05 Jan 2000 20:17:56.433      669.06532778    
05 Jan 2000 21:52:35.270    05 Jan 2000 22:04:34.241      718.97170533    
05 Jan 2000 23:39:06.774    05 Jan 2000 23:51:00.535      713.76035605    
06 Jan 2000 01:25:37.314    06 Jan 2000 01:37:30.519      713.20455320    
06 Jan 2000 03:12:11.467    06 Jan 2000 03:23:26.805      675.33822928    
06 Jan 2000 05:00:05.400    06 Jan 2000 05:07:33.201      447.80159506    


Number of events : 34


Observer: RN
Start Time (UTC)            Stop Time (UTC)               Duration (s)         
01 Jan 2000 16:08:03.347    01 Jan 2000 16:16:48.956      525.60939384    
01 Jan 2000 17:52:52.169    01 Jan 2000 18:04:50.303      718.13474862    
01 Jan 2000 19:39:36.926    01 Jan 2000 19:50:56.087      679.16063801    
01 Jan 2000 21:28:11.340    01 Jan 2000 21:36:10.774      479.43413415    
01 Jan 2000 23:17:37.296    01 Jan 2000 23:21:45.004      247.70836303    
02 Jan 2000 01:04:08.546    02 Jan 2000 01:10:27.231      378.68454703    
02 Jan 2000 02:49:18.375    02 Jan 2000 02:59:30.769      612.39407292    
02 Jan 2000 04:35:00.558    02 Jan 2000 04:46:51.445      710.88684927    
02 Jan 2000 06:22:10.750    02 Jan 2000 06:32:20.706      609.95613069    
02 Jan 2000 15:23:16.695    02 Jan 2000 15:28:33.550      316.85534169    
02 Jan 2000 17:06:52.146    02 Jan 2000 17:18:08.363      676.21721799    
02 Jan 2000 18:52:52.862    02 Jan 2000 19:04:49.728      716.86599419    
02 Jan 2000 20:40:44.472    02 Jan 2000 20:50:18.907      574.43489627    
02 Jan 2000 22:30:07.834    02 Jan 2000 22:35:30.444      322.61017682    
03 Jan 2000 00:18:06.704    03 Jan 2000 00:22:50.002      283.29871640    
03 Jan 2000 02:03:24.677    03 Jan 2000 02:12:14.952      530.27418164    
03 Jan 2000 03:48:47.597    03 Jan 2000 04:00:19.701      692.10432378    
03 Jan 2000 05:35:14.512    03 Jan 2000 05:46:33.855      679.34287934    
03 Jan 2000 07:24:10.200    03 Jan 2000 07:30:36.873      386.67300011    
03 Jan 2000 16:21:11.577    03 Jan 2000 16:31:02.549      590.97184389    
03 Jan 2000 18:06:26.460    03 Jan 2000 18:18:32.181      725.72065346    
03 Jan 2000 19:53:33.648    03 Jan 2000 20:04:23.593      649.94503884    
03 Jan 2000 21:42:27.715    03 Jan 2000 21:49:34.189      426.47390510    
03 Jan 2000 23:31:37.042    03 Jan 2000 23:35:34.351      237.30904148    
04 Jan 2000 01:17:32.874    04 Jan 2000 01:24:44.405      431.53141325    
04 Jan 2000 03:02:44.606    04 Jan 2000 03:13:30.211      645.60501007    
04 Jan 2000 04:48:39.572    04 Jan 2000 05:00:28.417      708.84539798    
04 Jan 2000 06:36:17.802    04 Jan 2000 06:45:33.135      555.33299984    
04 Jan 2000 15:35:58.799    04 Jan 2000 15:43:19.740      440.94116595    
04 Jan 2000 17:20:17.463    04 Jan 2000 17:31:59.670      702.20761589    
04 Jan 2000 19:06:40.513    04 Jan 2000 19:18:21.694      701.18055856    
04 Jan 2000 20:54:54.244    04 Jan 2000 21:03:42.539      528.29443007    
04 Jan 2000 22:44:23.729    04 Jan 2000 22:49:01.719      277.98935700    
05 Jan 2000 00:31:37.178    05 Jan 2000 00:37:05.931      328.75266513    
05 Jan 2000 02:16:48.551    05 Jan 2000 02:26:22.996      574.44454122    
05 Jan 2000 04:02:20.267    05 Jan 2000 04:14:05.536      705.26942883    
